<?xml version="1.0" encoding="UTF-8"?>
<kml xmlns="http://www.opengis.net/kml/2.2">
<Document id="DOC_Huts_20101029">
  <name>DOC_Huts_20101029</name>
  <Snippet></Snippet>
  <Folder id="FeatureLayer0">
    <name>DOC_Huts_20101029</name>
  	<Snippet></Snippet>
    <Placemark>
      <name>KAHUI HUT</name>
      <styleUrl>#IconStyle00</styleUrl>
      <Snippet></Snippet>
      <Point>
        <extrude>0</extrude>
        <altitudeMode>relativeToGround</altitudeMode>
        <coordinates> 174.015093,-39.294523,0.000000</coordinates>
      </Point>
    </Placemark>
    <Placemark>
      <name>PINE VALLEY HUT</name>
      <styleUrl>#IconStyle00</styleUrl>
      <Snippet></Snippet>
      <Point>
        <extrude>0</extrude>
        <altitudeMode>relativeToGround</altitudeMode>
        <coordinates> 173.504330,-41.491984,0.000000</coordinates>
      </Point>
    </Placemark>
    <Placemark>
      <name>LOWER SALMON CREEK BIV</name>
      <styleUrl>#IconStyle00</styleUrl>
      <Snippet></Snippet>
      <Point>
        <extrude>0</extrude>
        <altitudeMode>relativeToGround</altitudeMode>
        <coordinates> 171.980453,-43.162141,0.000000</coordinates>
      </Point>
    </Placemark>
    <Placemark>
      <name>CARLYLE HUT</name>
      <styleUrl>#IconStyle00</styleUrl>
      <Snippet></Snippet>
      <Point>
        <extrude>0</extrude>
        <altitudeMode>relativeToGround</altitudeMode>
        <coordinates> 172.494652,-42.550714,0.000000</coordinates>
      </Point>
    </Placemark>
    <Placemark>
      <name>POULTER HUT</name>
      <styleUrl>#IconStyle00</styleUrl>
      <Snippet></Snippet>
      <Point>
        <extrude>0</extrude>
        <altitudeMode>relativeToGround</altitudeMode>
        <coordinates> 171.809975,-42.849446,0.000000</coordinates>
      </Point>
    </Placemark>
    <Placemark>
      <name>WHAREPAPA HUT</name>
      <styleUrl>#IconStyle00</styleUrl>
      <Snippet></Snippet>
      <Point>
        <extrude>0</extrude>
        <altitudeMode>relativeToGround</altitudeMode>
        <coordinates> 175.075273,-41.325922,0.000000</coordinates>
      </Point>
    </Placemark>
    <Placemark>
      <name>TURNBULL BIV</name>
      <styleUrl>#IconStyle00</styleUrl>
      <Snippet></Snippet>
      <Point>
        <extrude>0</extrude>
        <altitudeMode>relativeToGround</altitudeMode>
        <coordinates> 171.908709,-42.956096,0.000000</coordinates>
      </Point>
    </Placemark>
    <Placemark>
      <name>ELCHO HUT</name>
      <styleUrl>#IconStyle00</styleUrl>
      <Snippet></Snippet>
      <Point>
        <extrude>0</extrude>
        <altitudeMode>relativeToGround</altitudeMode>
        <coordinates> 169.830172,-43.931353,0.000000</coordinates>
      </Point>
    </Placemark>
    <Placemark>
      <name>BROKEN RIVER HUT</name>
      <styleUrl>#IconStyle00</styleUrl>
      <Snippet></Snippet>
      <Point>
        <extrude>0</extrude>
        <altitudeMode>relativeToGround</altitudeMode>
        <coordinates> 171.836094,-43.189794,0.000000</coordinates>
      </Point>
    </Placemark>
    <Placemark>
      <name>WILKINSON HUT</name>
      <styleUrl>#IconStyle00</styleUrl>
      <Snippet></Snippet>
      <Point>
        <extrude>0</extrude>
        <altitudeMode>relativeToGround</altitudeMode>
        <coordinates> 170.989336,-43.157081,0.000000</coordinates>
      </Point>
    </Placemark>
    <Placemark>
      <name>JULIA HUT (1958)</name>
      <styleUrl>#IconStyle00</styleUrl>
      <Snippet></Snippet>
      <Point>
        <extrude>0</extrude>
        <altitudeMode>relativeToGround</altitudeMode>
        <coordinates> 171.425235,-42.897434,0.000000</coordinates>
      </Point>
    </Placemark>
    <Placemark>
      <name>JULIA HUT (1986)</name>
      <styleUrl>#IconStyle00</styleUrl>
      <Snippet></Snippet>
      <Point>
        <extrude>0</extrude>
        <altitudeMode>relativeToGround</altitudeMode>
        <coordinates> 171.424011,-42.897417,0.000000</coordinates>
      </Point>
    </Placemark>
    <Placemark>
      <name>Lake Stream BIV</name>
      <styleUrl>#IconStyle00</styleUrl>
      <Snippet></Snippet>
      <Point>
        <extrude>0</extrude>
        <altitudeMode>relativeToGround</altitudeMode>
        <coordinates> 172.132127,-42.247725,0.000000</coordinates>
      </Point>
    </Placemark>
    <Placemark>
      <name>Ada Pass HUT</name>
      <styleUrl>#IconStyle00</styleUrl>
      <Snippet></Snippet>
      <Point>
        <extrude>0</extrude>
        <altitudeMode>relativeToGround</altitudeMode>
        <coordinates> 172.457329,-42.304374,0.000000</coordinates>
      </Point>
    </Placemark>
    <Placemark>
      <name>TOP DINGLE HUT</name>
      <styleUrl>#IconStyle00</styleUrl>
      <Snippet></Snippet>
      <Point>
        <extrude>0</extrude>
        <altitudeMode>relativeToGround</altitudeMode>
        <coordinates> 169.557741,-44.280262,0.000000</coordinates>
      </Point>
    </Placemark>
    <Placemark>
      <name>COTTERS HUT</name>
      <styleUrl>#IconStyle00</styleUrl>
      <Snippet></Snippet>
      <Point>
        <extrude>0</extrude>
        <altitudeMode>relativeToGround</altitudeMode>
        <coordinates> 169.516645,-44.361001,0.000000</coordinates>
      </Point>
    </Placemark>
    <Placemark>
      <name>BUSH HUT</name>
      <styleUrl>#IconStyle00</styleUrl>
      <Snippet></Snippet>
      <Point>
        <extrude>0</extrude>
        <altitudeMode>relativeToGround</altitudeMode>
        <coordinates> 169.462363,-44.407990,0.000000</coordinates>
      </Point>
    </Placemark>
    <Placemark>
      <name>TRILOBITE HUT</name>
      <styleUrl>#IconStyle00</styleUrl>
      <Snippet></Snippet>
      <Point>
        <extrude>0</extrude>
        <altitudeMode>relativeToGround</altitudeMode>
        <coordinates> 172.609546,-41.130397,0.000000</coordinates>
      </Point>
    </Placemark>
    <Placemark>
      <name>TREVOR CARTER HUT</name>
      <styleUrl>#IconStyle00</styleUrl>
      <Snippet></Snippet>
      <Point>
        <extrude>0</extrude>
        <altitudeMode>relativeToGround</altitudeMode>
        <coordinates> 172.390284,-41.398651,0.000000</coordinates>
      </Point>
    </Placemark>
    <Placemark>
      <name>HACKET HUT</name>
      <styleUrl>#IconStyle00</styleUrl>
      <Snippet></Snippet>
      <Point>
        <extrude>0</extrude>
        <altitudeMode>relativeToGround</altitudeMode>
        <coordinates> 173.245363,-41.416273,0.000000</coordinates>
      </Point>
    </Placemark>
    <Placemark>
      <name>ROARING LION HUT</name>
      <styleUrl>#IconStyle00</styleUrl>
      <Snippet></Snippet>
      <Point>
        <extrude>0</extrude>
        <altitudeMode>relativeToGround</altitudeMode>
        <coordinates> 172.431509,-41.198981,0.000000</coordinates>
      </Point>
    </Placemark>
    <Placemark>
      <name>PUTEORE HUT</name>
      <styleUrl>#IconStyle00</styleUrl>
      <Snippet></Snippet>
      <Point>
        <extrude>0</extrude>
        <altitudeMode>relativeToGround</altitudeMode>
        <coordinates> 174.789294,-39.369495,0.000000</coordinates>
      </Point>
    </Placemark>
    <Placemark>
      <name>CAPTAINS CREEK HUT</name>
      <styleUrl>#IconStyle00</styleUrl>
      <Snippet></Snippet>
      <Point>
        <extrude>0</extrude>
        <altitudeMode>relativeToGround</altitudeMode>
        <coordinates> 173.434098,-41.374308,0.000000</coordinates>
      </Point>
    </Placemark>
    <Placemark>
      <name>ROCKS HUT</name>
      <styleUrl>#IconStyle00</styleUrl>
      <Snippet></Snippet>
      <Point>
        <extrude>0</extrude>
        <altitudeMode>relativeToGround</altitudeMode>
        <coordinates> 173.353964,-41.367376,0.000000</coordinates>
      </Point>
    </Placemark>
    <Placemark>
      <name>UPPER D'URVILLE HUT</name>
      <styleUrl>#IconStyle00</styleUrl>
      <Snippet></Snippet>
      <Point>
        <extrude>0</extrude>
        <altitudeMode>relativeToGround</altitudeMode>
        <coordinates> 172.605865,-42.108211,0.000000</coordinates>
      </Point>
    </Placemark>
    <Placemark>
      <name>TARN HUT</name>
      <styleUrl>#IconStyle00</styleUrl>
      <Snippet></Snippet>
      <Point>
        <extrude>0</extrude>
        <altitudeMode>relativeToGround</altitudeMode>
        <coordinates> 173.169143,-41.551477,0.000000</coordinates>
      </Point>
    </Placemark>
    <Placemark>
      <name>DOWNES HUT</name>
      <styleUrl>#IconStyle00</styleUrl>
      <Snippet></Snippet>
      <Point>
        <extrude>0</extrude>
        <altitudeMode>relativeToGround</altitudeMode>
        <coordinates> 175.131294,-39.725816,0.000000</coordinates>
      </Point>
    </Placemark>
    <Placemark>
      <name>WAINGONGORO HUT</name>
      <styleUrl>#IconStyle00</styleUrl>
      <Snippet></Snippet>
      <Point>
        <extrude>0</extrude>
        <altitudeMode>relativeToGround</altitudeMode>
        <coordinates> 174.111740,-39.319716,0.000000</coordinates>
      </Point>
    </Placemark>
    <Placemark>
      <name>JOHN COULL HUT</name>
      <styleUrl>#IconStyle00</styleUrl>
      <Snippet></Snippet>
      <Point>
        <extrude>0</extrude>
        <altitudeMode>relativeToGround</altitudeMode>
        <coordinates> 174.914331,-39.233176,0.000000</coordinates>
      </Point>
    </Placemark>
    <Placemark>
      <name>GLENRAE HUT</name>
      <styleUrl>#IconStyle00</styleUrl>
      <Snippet></Snippet>
      <Point>
        <extrude>0</extrude>
        <altitudeMode>relativeToGround</altitudeMode>
        <coordinates> 172.432888,-42.765226,0.000000</coordinates>
      </Point>
    </Placemark>
    <Placemark>
      <name>MAITLAND HUT</name>
      <styleUrl>#IconStyle00</styleUrl>
      <Snippet></Snippet>
      <Point>
        <extrude>0</extrude>
        <altitudeMode>relativeToGround</altitudeMode>
        <coordinates> 169.741795,-44.216264,0.000000</coordinates>
      </Point>
    </Placemark>
    <Placemark>
      <name>MIDDLE HEAD HUT</name>
      <styleUrl>#IconStyle00</styleUrl>
      <Snippet></Snippet>
      <Point>
        <extrude>0</extrude>
        <altitudeMode>relativeToGround</altitudeMode>
        <coordinates> 169.454573,-43.824007,0.000000</coordinates>
      </Point>
    </Placemark>
    <Placemark>
      <name>CULLERS HUT</name>
      <styleUrl>#IconStyle00</styleUrl>
      <Snippet></Snippet>
      <Point>
        <extrude>0</extrude>
        <altitudeMode>relativeToGround</altitudeMode>
        <coordinates> 169.836426,-43.922190,0.000000</coordinates>
      </Point>
    </Placemark>
    <Placemark>
      <name>BRODRICK HUT</name>
      <styleUrl>#IconStyle00</styleUrl>
      <Snippet></Snippet>
      <Point>
        <extrude>0</extrude>
        <altitudeMode>relativeToGround</altitudeMode>
        <coordinates> 169.728777,-43.974497,0.000000</coordinates>
      </Point>
    </Placemark>
    <Placemark>
      <name>SOUTH HUXLEY BIV</name>
      <styleUrl>#IconStyle00</styleUrl>
      <Snippet></Snippet>
      <Point>
        <extrude>0</extrude>
        <altitudeMode>relativeToGround</altitudeMode>
        <coordinates> 169.741042,-44.046908,0.000000</coordinates>
      </Point>
    </Placemark>
    <Placemark>
      <name>HAGENS HUT</name>
      <styleUrl>#IconStyle00</styleUrl>
      <Snippet></Snippet>
      <Point>
        <extrude>0</extrude>
        <altitudeMode>relativeToGround</altitudeMode>
        <coordinates> 169.640068,-44.154787,0.000000</coordinates>
      </Point>
    </Placemark>
    <Placemark>
      <name>KENNEDY MEMORIAL HUT</name>
      <styleUrl>#IconStyle00</styleUrl>
      <Snippet></Snippet>
      <Point>
        <extrude>0</extrude>
        <altitudeMode>relativeToGround</altitudeMode>
        <coordinates> 169.964297,-43.880097,0.000000</coordinates>
      </Point>
    </Placemark>
    <Placemark>
      <name>GROUGH HUT</name>
      <styleUrl>#IconStyle00</styleUrl>
      <Snippet></Snippet>
      <Point>
        <extrude>0</extrude>
        <altitudeMode>relativeToGround</altitudeMode>
        <coordinates> 169.946667,-43.932772,0.000000</coordinates>
      </Point>
    </Placemark>
    <Placemark>
      <name>GOAT CREEK HUT</name>
      <styleUrl>#IconStyle00</styleUrl>
      <Snippet></Snippet>
      <Point>
        <extrude>0</extrude>
        <altitudeMode>relativeToGround</altitudeMode>
        <coordinates> 172.197553,-41.606340,0.000000</coordinates>
      </Point>
    </Placemark>
    <Placemark>
      <name>Lawrence Biv</name>
      <styleUrl>#IconStyle00</styleUrl>
      <Snippet></Snippet>
      <Point>
        <extrude>0</extrude>
        <altitudeMode>relativeToGround</altitudeMode>
        <coordinates> 170.921770,-43.348413,0.000000</coordinates>
      </Point>
    </Placemark>
    <Placemark>
      <name>BAIKIE HUT</name>
      <styleUrl>#IconStyle00</styleUrl>
      <Snippet></Snippet>
      <Point>
        <extrude>0</extrude>
        <altitudeMode>relativeToGround</altitudeMode>
        <coordinates> 170.064471,-44.108109,0.000000</coordinates>
      </Point>
    </Placemark>
    <Placemark>
      <name>MACAULAY HUT</name>
      <styleUrl>#IconStyle00</styleUrl>
      <Snippet></Snippet>
      <Point>
        <extrude>0</extrude>
        <altitudeMode>relativeToGround</altitudeMode>
        <coordinates> 170.603524,-43.580428,0.000000</coordinates>
      </Point>
    </Placemark>
    <Placemark>
      <name>CAMP STREAM HUT</name>
      <styleUrl>#IconStyle00</styleUrl>
      <Snippet></Snippet>
      <Point>
        <extrude>0</extrude>
        <altitudeMode>relativeToGround</altitudeMode>
        <coordinates> 170.649124,-43.793871,0.000000</coordinates>
      </Point>
    </Placemark>
    <Placemark>
      <name>CEDAR FLAT HUT (HISTORIC)</name>
      <styleUrl>#IconStyle00</styleUrl>
      <Snippet></Snippet>
      <Point>
        <extrude>0</extrude>
        <altitudeMode>relativeToGround</altitudeMode>
        <coordinates> 171.144326,-42.962841,0.000000</coordinates>
      </Point>
    </Placemark>
    <Placemark>
      <name>TOP TIMARU CK HUT</name>
      <styleUrl>#IconStyle00</styleUrl>
      <Snippet></Snippet>
      <Point>
        <extrude>0</extrude>
        <altitudeMode>relativeToGround</altitudeMode>
        <coordinates> 169.500196,-44.469500,0.000000</coordinates>
      </Point>
    </Placemark>
    <Placemark>
      <name>MEG HUT</name>
      <styleUrl>#IconStyle00</styleUrl>
      <Snippet></Snippet>
      <Point>
        <extrude>0</extrude>
        <altitudeMode>relativeToGround</altitudeMode>
        <coordinates> 169.055500,-44.914675,0.000000</coordinates>
      </Point>
    </Placemark>
    <Placemark>
      <name>NORTH MANGAHAO BIVVY</name>
      <styleUrl>#IconStyle00</styleUrl>
      <Snippet></Snippet>
      <Point>
        <extrude>0</extrude>
        <altitudeMode>relativeToGround</altitudeMode>
        <coordinates> 175.594264,-40.544334,0.000000</coordinates>
      </Point>
    </Placemark>
    <Placemark>
      <name>SUTHERLANDS HUT</name>
      <styleUrl>#IconStyle00</styleUrl>
      <Snippet></Snippet>
      <Point>
        <extrude>0</extrude>
        <altitudeMode>relativeToGround</altitudeMode>
        <coordinates> 175.331321,-41.437241,0.000000</coordinates>
      </Point>
    </Placemark>
    <Placemark>
      <name>CONE HUT</name>
      <styleUrl>#IconStyle00</styleUrl>
      <Snippet></Snippet>
      <Point>
        <extrude>0</extrude>
        <altitudeMode>relativeToGround</altitudeMode>
        <coordinates> 175.344776,-40.987586,0.000000</coordinates>
      </Point>
    </Placemark>
    <Placemark>
      <name>Mathias Hut</name>
      <styleUrl>#IconStyle00</styleUrl>
      <Snippet></Snippet>
      <Point>
        <extrude>0</extrude>
        <altitudeMode>relativeToGround</altitudeMode>
        <coordinates> 171.131042,-43.186462,0.000000</coordinates>
      </Point>
    </Placemark>
    <Placemark>
      <name>Jellicoe Hut</name>
      <styleUrl>#IconStyle00</styleUrl>
      <Snippet></Snippet>
      <Point>
        <extrude>0</extrude>
        <altitudeMode>relativeToGround</altitudeMode>
        <coordinates> 171.115002,-43.280916,0.000000</coordinates>
      </Point>
    </Placemark>
    <Placemark>
      <name>Lyell Hut</name>
      <styleUrl>#IconStyle00</styleUrl>
      <Snippet></Snippet>
      <Point>
        <extrude>0</extrude>
        <altitudeMode>relativeToGround</altitudeMode>
        <coordinates> 170.909555,-43.299171,0.000000</coordinates>
      </Point>
    </Placemark>
    <Placemark>
      <name>Cameron Hut</name>
      <styleUrl>#IconStyle00</styleUrl>
      <Snippet></Snippet>
      <Point>
        <extrude>0</extrude>
        <altitudeMode>relativeToGround</altitudeMode>
        <coordinates> 171.017829,-43.367191,0.000000</coordinates>
      </Point>
    </Placemark>
    <Placemark>
      <name>HARMAN HUT</name>
      <styleUrl>#IconStyle00</styleUrl>
      <Snippet></Snippet>
      <Point>
        <extrude>0</extrude>
        <altitudeMode>relativeToGround</altitudeMode>
        <coordinates> 171.321770,-42.919359,0.000000</coordinates>
      </Point>
    </Placemark>
    <Placemark>
      <name>Woolshed Creek Hut</name>
      <styleUrl>#IconStyle00</styleUrl>
      <Snippet></Snippet>
      <Point>
        <extrude>0</extrude>
        <altitudeMode>relativeToGround</altitudeMode>
        <coordinates> 171.325927,-43.601209,0.000000</coordinates>
      </Point>
    </Placemark>
    <Placemark>
      <name>Spurs Hut</name>
      <styleUrl>#IconStyle00</styleUrl>
      <Snippet></Snippet>
      <Point>
        <extrude>0</extrude>
        <altitudeMode>relativeToGround</altitudeMode>
        <coordinates> 170.871964,-43.826664,0.000000</coordinates>
      </Point>
    </Placemark>
    <Placemark>
      <name>HURUNUI NO. 3 HUT</name>
      <styleUrl>#IconStyle00</styleUrl>
      <Snippet></Snippet>
      <Point>
        <extrude>0</extrude>
        <altitudeMode>relativeToGround</altitudeMode>
        <coordinates> 171.986856,-42.701254,0.000000</coordinates>
      </Point>
    </Placemark>
    <Placemark>
      <name>HURUNUI HUT</name>
      <styleUrl>#IconStyle00</styleUrl>
      <Snippet></Snippet>
      <Point>
        <extrude>0</extrude>
        <altitudeMode>relativeToGround</altitudeMode>
        <coordinates> 172.091755,-42.706646,0.000000</coordinates>
      </Point>
    </Placemark>
    <Placemark>
      <name>HOPE KIWI LODGE</name>
      <styleUrl>#IconStyle00</styleUrl>
      <Snippet></Snippet>
      <Point>
        <extrude>0</extrude>
        <altitudeMode>relativeToGround</altitudeMode>
        <coordinates> 172.237614,-42.642518,0.000000</coordinates>
      </Point>
    </Placemark>
    <Placemark>
      <name>Kirwans HUT</name>
      <styleUrl>#IconStyle00</styleUrl>
      <Snippet></Snippet>
      <Point>
        <extrude>0</extrude>
        <altitudeMode>relativeToGround</altitudeMode>
        <coordinates> 172.009896,-42.103085,0.000000</coordinates>
      </Point>
    </Placemark>
    <Placemark>
      <name>COPLAND SHELTER</name>
      <styleUrl>#IconStyle00</styleUrl>
      <Snippet></Snippet>
      <Point>
        <extrude>0</extrude>
        <altitudeMode>relativeToGround</altitudeMode>
        <coordinates> 170.098456,-43.654809,0.000000</coordinates>
      </Point>
    </Placemark>
    <Placemark>
      <name>BEALEY SPUR HUT</name>
      <styleUrl>#IconStyle00</styleUrl>
      <Snippet></Snippet>
      <Point>
        <extrude>0</extrude>
        <altitudeMode>relativeToGround</altitudeMode>
        <coordinates> 171.569932,-43.032967,0.000000</coordinates>
      </Point>
    </Placemark>
    <Placemark>
      <name>Evans Hut</name>
      <styleUrl>#IconStyle00</styleUrl>
      <Snippet></Snippet>
      <Point>
        <extrude>0</extrude>
        <altitudeMode>relativeToGround</altitudeMode>
        <coordinates> 171.036648,-43.258510,0.000000</coordinates>
      </Point>
    </Placemark>
    <Placemark>
      <name>Reischek Hut</name>
      <styleUrl>#IconStyle00</styleUrl>
      <Snippet></Snippet>
      <Point>
        <extrude>0</extrude>
        <altitudeMode>relativeToGround</altitudeMode>
        <coordinates> 170.964189,-43.279726,0.000000</coordinates>
      </Point>
    </Placemark>
    <Placemark>
      <name>Lawrence Hut</name>
      <styleUrl>#IconStyle00</styleUrl>
      <Snippet></Snippet>
      <Point>
        <extrude>0</extrude>
        <altitudeMode>relativeToGround</altitudeMode>
        <coordinates> 170.885112,-43.421241,0.000000</coordinates>
      </Point>
    </Placemark>
    <Placemark>
      <name>Watchdog Hut</name>
      <styleUrl>#IconStyle00</styleUrl>
      <Snippet></Snippet>
      <Point>
        <extrude>0</extrude>
        <altitudeMode>relativeToGround</altitudeMode>
        <coordinates> 170.788560,-43.408042,0.000000</coordinates>
      </Point>
    </Placemark>
    <Placemark>
      <name>DOUGLAS ROCK HUT</name>
      <styleUrl>#IconStyle00</styleUrl>
      <Snippet></Snippet>
      <Point>
        <extrude>0</extrude>
        <altitudeMode>relativeToGround</altitudeMode>
        <coordinates> 170.019170,-43.652768,0.000000</coordinates>
      </Point>
    </Placemark>
    <Placemark>
      <name>TUNNEL CREEK HUT</name>
      <styleUrl>#IconStyle00</styleUrl>
      <Snippet></Snippet>
      <Point>
        <extrude>0</extrude>
        <altitudeMode>relativeToGround</altitudeMode>
        <coordinates> 169.537018,-43.818427,0.000000</coordinates>
      </Point>
    </Placemark>
    <Placemark>
      <name>MAORI SADDLE HUT</name>
      <styleUrl>#IconStyle00</styleUrl>
      <Snippet></Snippet>
      <Point>
        <extrude>0</extrude>
        <altitudeMode>relativeToGround</altitudeMode>
        <coordinates> 169.274191,-43.814201,0.000000</coordinates>
      </Point>
    </Placemark>
    <Placemark>
      <name>SAM SUMMERS HUT</name>
      <styleUrl>#IconStyle00</styleUrl>
      <Snippet></Snippet>
      <Point>
        <extrude>0</extrude>
        <altitudeMode>relativeToGround</altitudeMode>
        <coordinates> 168.531365,-45.051140,0.000000</coordinates>
      </Point>
    </Placemark>
    <Placemark>
      <name>PRICE FLAT HUT (HISTORIC)</name>
      <styleUrl>#IconStyle00</styleUrl>
      <Snippet></Snippet>
      <Point>
        <extrude>0</extrude>
        <altitudeMode>relativeToGround</altitudeMode>
        <coordinates> 171.006059,-43.106544,0.000000</coordinates>
      </Point>
    </Placemark>
    <Placemark>
      <name>TOP TOAROHA HUT</name>
      <styleUrl>#IconStyle00</styleUrl>
      <Snippet></Snippet>
      <Point>
        <extrude>0</extrude>
        <altitudeMode>relativeToGround</altitudeMode>
        <coordinates> 171.153933,-43.013405,0.000000</coordinates>
      </Point>
    </Placemark>
    <Placemark>
      <name>PRICE FLAT HUT</name>
      <styleUrl>#IconStyle00</styleUrl>
      <Snippet></Snippet>
      <Point>
        <extrude>0</extrude>
        <altitudeMode>relativeToGround</altitudeMode>
        <coordinates> 171.006850,-43.110564,0.000000</coordinates>
      </Point>
    </Placemark>
    <Placemark>
      <name>POET HUT</name>
      <styleUrl>#IconStyle00</styleUrl>
      <Snippet></Snippet>
      <Point>
        <extrude>0</extrude>
        <altitudeMode>relativeToGround</altitudeMode>
        <coordinates> 171.152211,-43.035637,0.000000</coordinates>
      </Point>
    </Placemark>
    <Placemark>
      <name>HORSESHOE FLAT HUT</name>
      <styleUrl>#IconStyle00</styleUrl>
      <Snippet></Snippet>
      <Point>
        <extrude>0</extrude>
        <altitudeMode>relativeToGround</altitudeMode>
        <coordinates> 169.414344,-43.810137,0.000000</coordinates>
      </Point>
    </Placemark>
    <Placemark>
      <name>BLUE RIVER (BLOWFLY) HUT</name>
      <styleUrl>#IconStyle00</styleUrl>
      <Snippet></Snippet>
      <Point>
        <extrude>0</extrude>
        <altitudeMode>relativeToGround</altitudeMode>
        <coordinates> 169.345753,-43.792657,0.000000</coordinates>
      </Point>
    </Placemark>
    <Placemark>
      <name>MITRE FLATS HUT</name>
      <styleUrl>#IconStyle00</styleUrl>
      <Snippet></Snippet>
      <Point>
        <extrude>0</extrude>
        <altitudeMode>relativeToGround</altitudeMode>
        <coordinates> 175.478467,-40.830666,0.000000</coordinates>
      </Point>
    </Placemark>
    <Placemark>
      <name>NGAPOTIKI HUT</name>
      <styleUrl>#IconStyle00</styleUrl>
      <Snippet></Snippet>
      <Point>
        <extrude>0</extrude>
        <altitudeMode>relativeToGround</altitudeMode>
        <coordinates> 175.351307,-41.587459,0.000000</coordinates>
      </Point>
    </Placemark>
    <Placemark>
      <name>ANTI CROW HUT</name>
      <styleUrl>#IconStyle00</styleUrl>
      <Snippet></Snippet>
      <Point>
        <extrude>0</extrude>
        <altitudeMode>relativeToGround</altitudeMode>
        <coordinates> 171.510905,-43.000319,0.000000</coordinates>
      </Point>
    </Placemark>
    <Placemark>
      <name>CARKEEK HUT</name>
      <styleUrl>#IconStyle00</styleUrl>
      <Snippet></Snippet>
      <Point>
        <extrude>0</extrude>
        <altitudeMode>relativeToGround</altitudeMode>
        <coordinates> 175.396399,-40.790958,0.000000</coordinates>
      </Point>
    </Placemark>
    <Placemark>
      <name>COW CREEK HUT</name>
      <styleUrl>#IconStyle00</styleUrl>
      <Snippet></Snippet>
      <Point>
        <extrude>0</extrude>
        <altitudeMode>relativeToGround</altitudeMode>
        <coordinates> 175.490948,-40.776642,0.000000</coordinates>
      </Point>
    </Placemark>
    <Placemark>
      <name>DORSET RIDGE HUT</name>
      <styleUrl>#IconStyle00</styleUrl>
      <Snippet></Snippet>
      <Point>
        <extrude>0</extrude>
        <altitudeMode>relativeToGround</altitudeMode>
        <coordinates> 175.422470,-40.807518,0.000000</coordinates>
      </Point>
    </Placemark>
    <Placemark>
      <name>BLUE RANGE HUT</name>
      <styleUrl>#IconStyle00</styleUrl>
      <Snippet></Snippet>
      <Point>
        <extrude>0</extrude>
        <altitudeMode>relativeToGround</altitudeMode>
        <coordinates> 175.518629,-40.793307,0.000000</coordinates>
      </Point>
    </Placemark>
    <Placemark>
      <name>TAUANUI HUT</name>
      <styleUrl>#IconStyle00</styleUrl>
      <Snippet></Snippet>
      <Point>
        <extrude>0</extrude>
        <altitudeMode>relativeToGround</altitudeMode>
        <coordinates> 175.304465,-41.388237,0.000000</coordinates>
      </Point>
    </Placemark>
    <Placemark>
      <name>BOYLE FLAT HUT</name>
      <styleUrl>#IconStyle00</styleUrl>
      <Snippet></Snippet>
      <Point>
        <extrude>0</extrude>
        <altitudeMode>relativeToGround</altitudeMode>
        <coordinates> 172.459921,-42.466369,0.000000</coordinates>
      </Point>
    </Placemark>
    <Placemark>
      <name>MANGATOETOE HUT</name>
      <styleUrl>#IconStyle00</styleUrl>
      <Snippet></Snippet>
      <Point>
        <extrude>0</extrude>
        <altitudeMode>relativeToGround</altitudeMode>
        <coordinates> 175.271760,-41.570019,0.000000</coordinates>
      </Point>
    </Placemark>
    <Placemark>
      <name>WAIOTAURU HUT</name>
      <styleUrl>#IconStyle00</styleUrl>
      <Snippet></Snippet>
      <Point>
        <extrude>0</extrude>
        <altitudeMode>relativeToGround</altitudeMode>
        <coordinates> 175.184350,-40.939298,0.000000</coordinates>
      </Point>
    </Placemark>
    <Placemark>
      <name>HOPE SHELTER</name>
      <styleUrl>#IconStyle00</styleUrl>
      <Snippet></Snippet>
      <Point>
        <extrude>0</extrude>
        <altitudeMode>relativeToGround</altitudeMode>
        <coordinates> 172.297684,-42.615885,0.000000</coordinates>
      </Point>
    </Placemark>
    <Placemark>
      <name>Big River HUT</name>
      <styleUrl>#IconStyle00</styleUrl>
      <Snippet></Snippet>
      <Point>
        <extrude>0</extrude>
        <altitudeMode>relativeToGround</altitudeMode>
        <coordinates> 171.892790,-42.244637,0.000000</coordinates>
      </Point>
    </Placemark>
    <Placemark>
      <name>JOLLIE BROOK HUT</name>
      <styleUrl>#IconStyle00</styleUrl>
      <Snippet></Snippet>
      <Point>
        <extrude>0</extrude>
        <altitudeMode>relativeToGround</altitudeMode>
        <coordinates> 172.333288,-42.720932,0.000000</coordinates>
      </Point>
    </Placemark>
    <Placemark>
      <name>GABRIEL HUT</name>
      <styleUrl>#IconStyle00</styleUrl>
      <Snippet></Snippet>
      <Point>
        <extrude>0</extrude>
        <altitudeMode>relativeToGround</altitudeMode>
        <coordinates> 172.289337,-42.721559,0.000000</coordinates>
      </Point>
    </Placemark>
    <Placemark>
      <name>CAROLINE CREEK BIV</name>
      <styleUrl>#IconStyle00</styleUrl>
      <Snippet></Snippet>
      <Point>
        <extrude>0</extrude>
        <altitudeMode>relativeToGround</altitudeMode>
        <coordinates> 172.659881,-42.153722,0.000000</coordinates>
      </Point>
    </Placemark>
    <Placemark>
      <name>LUCRETIA HUT</name>
      <styleUrl>#IconStyle00</styleUrl>
      <Snippet></Snippet>
      <Point>
        <extrude>0</extrude>
        <altitudeMode>relativeToGround</altitudeMode>
        <coordinates> 172.348611,-42.427524,0.000000</coordinates>
      </Point>
    </Placemark>
    <Placemark>
      <name>EVANGALINE BIV</name>
      <styleUrl>#IconStyle00</styleUrl>
      <Snippet></Snippet>
      <Point>
        <extrude>0</extrude>
        <altitudeMode>relativeToGround</altitudeMode>
        <coordinates> 172.278748,-42.682463,0.000000</coordinates>
      </Point>
    </Placemark>
    <Placemark>
      <name>HEREPAI HUT</name>
      <styleUrl>#IconStyle00</styleUrl>
      <Snippet></Snippet>
      <Point>
        <extrude>0</extrude>
        <altitudeMode>relativeToGround</altitudeMode>
        <coordinates> 175.523073,-40.692769,0.000000</coordinates>
      </Point>
    </Placemark>
    <Placemark>
      <name>WAIORONGOMAI HUT</name>
      <styleUrl>#IconStyle00</styleUrl>
      <Snippet></Snippet>
      <Point>
        <extrude>0</extrude>
        <altitudeMode>relativeToGround</altitudeMode>
        <coordinates> 175.106569,-41.256630,0.000000</coordinates>
      </Point>
    </Placemark>
    <Placemark>
      <name>Carrington Hut</name>
      <styleUrl>#IconStyle00</styleUrl>
      <Snippet></Snippet>
      <Point>
        <extrude>0</extrude>
        <altitudeMode>relativeToGround</altitudeMode>
        <coordinates> 171.448152,-42.959873,0.000000</coordinates>
      </Point>
    </Placemark>
    <Placemark>
      <name>KAPAKAPANUI HUT</name>
      <styleUrl>#IconStyle00</styleUrl>
      <Snippet></Snippet>
      <Point>
        <extrude>0</extrude>
        <altitudeMode>relativeToGround</altitudeMode>
        <coordinates> 175.155482,-40.916900,0.000000</coordinates>
      </Point>
    </Placemark>
    <Placemark>
      <name>CEDAR FLAT HUT</name>
      <styleUrl>#IconStyle00</styleUrl>
      <Snippet></Snippet>
      <Point>
        <extrude>0</extrude>
        <altitudeMode>relativeToGround</altitudeMode>
        <coordinates> 171.143505,-42.962828,0.000000</coordinates>
      </Point>
    </Placemark>
    <Placemark>
      <name>RAPID CREEK HUT</name>
      <styleUrl>#IconStyle00</styleUrl>
      <Snippet></Snippet>
      <Point>
        <extrude>0</extrude>
        <altitudeMode>relativeToGround</altitudeMode>
        <coordinates> 171.011176,-43.011427,0.000000</coordinates>
      </Point>
    </Placemark>
    <Placemark>
      <name>MONOWAI HUT</name>
      <styleUrl>#IconStyle00</styleUrl>
      <Snippet></Snippet>
      <Point>
        <extrude>0</extrude>
        <altitudeMode>relativeToGround</altitudeMode>
        <coordinates> 167.346914,-45.834894,0.000000</coordinates>
      </Point>
    </Placemark>
    <Placemark>
      <name>TE ONEROA A-FRAME HUT</name>
      <styleUrl>#IconStyle00</styleUrl>
      <Snippet></Snippet>
      <Point>
        <extrude>0</extrude>
        <altitudeMode>relativeToGround</altitudeMode>
        <coordinates> 166.672104,-46.123280,0.000000</coordinates>
      </Point>
    </Placemark>
    <Placemark>
      <name>ARCHITECT CREEK HUT</name>
      <styleUrl>#IconStyle00</styleUrl>
      <Snippet></Snippet>
      <Point>
        <extrude>0</extrude>
        <altitudeMode>relativeToGround</altitudeMode>
        <coordinates> 169.884875,-43.611360,0.000000</coordinates>
      </Point>
    </Placemark>
    <Placemark>
      <name>Croesus Top HUT</name>
      <styleUrl>#IconStyle00</styleUrl>
      <Snippet></Snippet>
      <Point>
        <extrude>0</extrude>
        <altitudeMode>relativeToGround</altitudeMode>
        <coordinates> 171.391853,-42.293426,0.000000</coordinates>
      </Point>
    </Placemark>
    <Placemark>
      <name>MUDFLATS HUT</name>
      <styleUrl>#IconStyle00</styleUrl>
      <Snippet></Snippet>
      <Point>
        <extrude>0</extrude>
        <altitudeMode>relativeToGround</altitudeMode>
        <coordinates> 171.368273,-42.875015,0.000000</coordinates>
      </Point>
    </Placemark>
    <Placemark>
      <name>Jims Flat HUT</name>
      <styleUrl>#IconStyle00</styleUrl>
      <Snippet></Snippet>
      <Point>
        <extrude>0</extrude>
        <altitudeMode>relativeToGround</altitudeMode>
        <coordinates> 171.730543,-42.434476,0.000000</coordinates>
      </Point>
    </Placemark>
    <Placemark>
      <name>MIKONUI FLAT HUT</name>
      <styleUrl>#IconStyle00</styleUrl>
      <Snippet></Snippet>
      <Point>
        <extrude>0</extrude>
        <altitudeMode>relativeToGround</altitudeMode>
        <coordinates> 170.874692,-43.023533,0.000000</coordinates>
      </Point>
    </Placemark>
    <Placemark>
      <name>MID STYX HUT</name>
      <styleUrl>#IconStyle00</styleUrl>
      <Snippet></Snippet>
      <Point>
        <extrude>0</extrude>
        <altitudeMode>relativeToGround</altitudeMode>
        <coordinates> 171.245264,-42.895699,0.000000</coordinates>
      </Point>
    </Placemark>
    <Placemark>
      <name>CHEVIOT DOWNS HUT</name>
      <styleUrl>#IconStyle00</styleUrl>
      <Snippet></Snippet>
      <Point>
        <extrude>0</extrude>
        <altitudeMode>relativeToGround</altitudeMode>
        <coordinates> 167.784484,-45.632847,0.000000</coordinates>
      </Point>
    </Placemark>
    <Placemark>
      <name>CARROLL HUT</name>
      <styleUrl>#IconStyle00</styleUrl>
      <Snippet></Snippet>
      <Point>
        <extrude>0</extrude>
        <altitudeMode>relativeToGround</altitudeMode>
        <coordinates> 171.552638,-42.791082,0.000000</coordinates>
      </Point>
    </Placemark>
    <Placemark>
      <name>TIRAUMEA HUT</name>
      <styleUrl>#IconStyle00</styleUrl>
      <Snippet></Snippet>
      <Point>
        <extrude>0</extrude>
        <altitudeMode>relativeToGround</altitudeMode>
        <coordinates> 172.581825,-41.908241,0.000000</coordinates>
      </Point>
    </Placemark>
    <Placemark>
      <name>STARVEALL HUT</name>
      <styleUrl>#IconStyle00</styleUrl>
      <Snippet></Snippet>
      <Point>
        <extrude>0</extrude>
        <altitudeMode>relativeToGround</altitudeMode>
        <coordinates> 173.240733,-41.458609,0.000000</coordinates>
      </Point>
    </Placemark>
    <Placemark>
      <name>TOP WAIROA HUT</name>
      <styleUrl>#IconStyle00</styleUrl>
      <Snippet></Snippet>
      <Point>
        <extrude>0</extrude>
        <altitudeMode>relativeToGround</altitudeMode>
        <coordinates> 173.074508,-41.610999,0.000000</coordinates>
      </Point>
    </Placemark>
    <Placemark>
      <name>POUAKAI HUT</name>
      <styleUrl>#IconStyle00</styleUrl>
      <Snippet></Snippet>
      <Point>
        <extrude>0</extrude>
        <altitudeMode>relativeToGround</altitudeMode>
        <coordinates> 174.036215,-39.236668,0.000000</coordinates>
      </Point>
    </Placemark>
    <Placemark>
      <name>JAM HUT</name>
      <styleUrl>#IconStyle00</styleUrl>
      <Snippet></Snippet>
      <Point>
        <extrude>0</extrude>
        <altitudeMode>relativeToGround</altitudeMode>
        <coordinates> 173.714484,-42.095973,0.000000</coordinates>
      </Point>
    </Placemark>
    <Placemark>
      <name>TOP GORDON'S HUT</name>
      <styleUrl>#IconStyle00</styleUrl>
      <Snippet></Snippet>
      <Point>
        <extrude>0</extrude>
        <altitudeMode>relativeToGround</altitudeMode>
        <coordinates> 173.191785,-41.932314,0.000000</coordinates>
      </Point>
    </Placemark>
    <Placemark>
      <name>BLUE MOUNTAIN HUT</name>
      <styleUrl>#IconStyle00</styleUrl>
      <Snippet></Snippet>
      <Point>
        <extrude>0</extrude>
        <altitudeMode>relativeToGround</altitudeMode>
        <coordinates> 173.324090,-41.862701,0.000000</coordinates>
      </Point>
    </Placemark>
    <Placemark>
      <name>MID SILVERSTREAM HUT</name>
      <styleUrl>#IconStyle00</styleUrl>
      <Snippet></Snippet>
      <Point>
        <extrude>0</extrude>
        <altitudeMode>relativeToGround</altitudeMode>
        <coordinates> 173.046963,-41.825473,0.000000</coordinates>
      </Point>
    </Placemark>
    <Placemark>
      <name>ZOO HUT</name>
      <styleUrl>#IconStyle00</styleUrl>
      <Snippet></Snippet>
      <Point>
        <extrude>0</extrude>
        <altitudeMode>relativeToGround</altitudeMode>
        <coordinates> 173.925996,-41.923418,0.000000</coordinates>
      </Point>
    </Placemark>
    <Placemark>
      <name>Pinnacles Hut</name>
      <styleUrl>#IconStyle00</styleUrl>
      <Snippet></Snippet>
      <Point>
        <extrude>0</extrude>
        <altitudeMode>relativeToGround</altitudeMode>
        <coordinates> 171.382615,-43.609850,0.000000</coordinates>
      </Point>
    </Placemark>
    <Placemark>
      <name>EDWARDS HUT</name>
      <styleUrl>#IconStyle00</styleUrl>
      <Snippet></Snippet>
      <Point>
        <extrude>0</extrude>
        <altitudeMode>relativeToGround</altitudeMode>
        <coordinates> 171.647112,-42.942604,0.000000</coordinates>
      </Point>
    </Placemark>
    <Placemark>
      <name>CUPOLA HUT</name>
      <styleUrl>#IconStyle00</styleUrl>
      <Snippet></Snippet>
      <Point>
        <extrude>0</extrude>
        <altitudeMode>relativeToGround</altitudeMode>
        <coordinates> 172.732213,-41.972630,0.000000</coordinates>
      </Point>
    </Placemark>
    <Placemark>
      <name>MINGHA BIV</name>
      <styleUrl>#IconStyle00</styleUrl>
      <Snippet></Snippet>
      <Point>
        <extrude>0</extrude>
        <altitudeMode>relativeToGround</altitudeMode>
        <coordinates> 171.630113,-42.922636,0.000000</coordinates>
      </Point>
    </Placemark>
    <Placemark>
      <name>JUMBO HUT</name>
      <styleUrl>#IconStyle00</styleUrl>
      <Snippet></Snippet>
      <Point>
        <extrude>0</extrude>
        <altitudeMode>relativeToGround</altitudeMode>
        <coordinates> 175.440191,-40.854010,0.000000</coordinates>
      </Point>
    </Placemark>
    <Placemark>
      <name>MID WAIOHINE HUT</name>
      <styleUrl>#IconStyle00</styleUrl>
      <Snippet></Snippet>
      <Point>
        <extrude>0</extrude>
        <altitudeMode>relativeToGround</altitudeMode>
        <coordinates> 175.381718,-40.874157,0.000000</coordinates>
      </Point>
    </Placemark>
    <Placemark>
      <name>WHARFEDALE HUT</name>
      <styleUrl>#IconStyle00</styleUrl>
      <Snippet></Snippet>
      <Point>
        <extrude>0</extrude>
        <altitudeMode>relativeToGround</altitudeMode>
        <coordinates> 172.040146,-43.197767,0.000000</coordinates>
      </Point>
    </Placemark>
    <Placemark>
      <name>AOKAPARANGI HUT</name>
      <styleUrl>#IconStyle00</styleUrl>
      <Snippet></Snippet>
      <Point>
        <extrude>0</extrude>
        <altitudeMode>relativeToGround</altitudeMode>
        <coordinates> 175.360345,-40.891827,0.000000</coordinates>
      </Point>
    </Placemark>
    <Placemark>
      <name>RENATA HUT</name>
      <styleUrl>#IconStyle00</styleUrl>
      <Snippet></Snippet>
      <Point>
        <extrude>0</extrude>
        <altitudeMode>relativeToGround</altitudeMode>
        <coordinates> 175.172195,-40.967451,0.000000</coordinates>
      </Point>
    </Placemark>
    <Placemark>
      <name>SMITHS STREAM HUT</name>
      <styleUrl>#IconStyle00</styleUrl>
      <Snippet></Snippet>
      <Point>
        <extrude>0</extrude>
        <altitudeMode>relativeToGround</altitudeMode>
        <coordinates> 176.169853,-39.848679,0.000000</coordinates>
      </Point>
    </Placemark>
    <Placemark>
      <name>RUAHINE CORNER HUT</name>
      <styleUrl>#IconStyle00</styleUrl>
      <Snippet></Snippet>
      <Point>
        <extrude>0</extrude>
        <altitudeMode>relativeToGround</altitudeMode>
        <coordinates> 176.171472,-39.631415,0.000000</coordinates>
      </Point>
    </Placemark>
    <Placemark>
      <name>PIRIPIRI HUT</name>
      <styleUrl>#IconStyle00</styleUrl>
      <Snippet></Snippet>
      <Point>
        <extrude>0</extrude>
        <altitudeMode>relativeToGround</altitudeMode>
        <coordinates> 176.016929,-40.039346,0.000000</coordinates>
      </Point>
    </Placemark>
    <Placemark>
      <name>UPPER TE HOE HUT</name>
      <styleUrl>#IconStyle00</styleUrl>
      <Snippet></Snippet>
      <Point>
        <extrude>0</extrude>
        <altitudeMode>relativeToGround</altitudeMode>
        <coordinates> 176.718664,-38.839642,0.000000</coordinates>
      </Point>
    </Placemark>
    <Placemark>
      <name>KAHUNUI HUT</name>
      <styleUrl>#IconStyle00</styleUrl>
      <Snippet></Snippet>
      <Point>
        <extrude>0</extrude>
        <altitudeMode>relativeToGround</altitudeMode>
        <coordinates> 177.276730,-38.480137,0.000000</coordinates>
      </Point>
    </Placemark>
    <Placemark>
      <name>WHAKAPAPAITI HUT</name>
      <styleUrl>#IconStyle00</styleUrl>
      <Snippet></Snippet>
      <Point>
        <extrude>0</extrude>
        <altitudeMode>relativeToGround</altitudeMode>
        <coordinates> 175.517790,-39.237591,0.000000</coordinates>
      </Point>
    </Placemark>
    <Placemark>
      <name>TURNBULL'S (BIG DAM) HUT</name>
      <styleUrl>#IconStyle00</styleUrl>
      <Snippet></Snippet>
      <Point>
        <extrude>0</extrude>
        <altitudeMode>relativeToGround</altitudeMode>
        <coordinates> 167.851878,-46.291583,0.000000</coordinates>
      </Point>
    </Placemark>
    <Placemark>
      <name>WAIPAKIHI HUT</name>
      <styleUrl>#IconStyle00</styleUrl>
      <Snippet></Snippet>
      <Point>
        <extrude>0</extrude>
        <altitudeMode>relativeToGround</altitudeMode>
        <coordinates> 175.957270,-39.124268,0.000000</coordinates>
      </Point>
    </Placemark>
    <Placemark>
      <name>APARIMA HUT (MAIN HUT)</name>
      <styleUrl>#IconStyle00</styleUrl>
      <Snippet></Snippet>
      <Point>
        <extrude>0</extrude>
        <altitudeMode>relativeToGround</altitudeMode>
        <coordinates> 168.000406,-45.707780,0.000000</coordinates>
      </Point>
    </Placemark>
    <Placemark>
      <name>SPENCE HUT</name>
      <styleUrl>#IconStyle00</styleUrl>
      <Snippet></Snippet>
      <Point>
        <extrude>0</extrude>
        <altitudeMode>relativeToGround</altitudeMode>
        <coordinates> 167.878308,-45.706102,0.000000</coordinates>
      </Point>
    </Placemark>
    <Placemark>
      <name>IRTHING HUT</name>
      <styleUrl>#IconStyle00</styleUrl>
      <Snippet></Snippet>
      <Point>
        <extrude>0</extrude>
        <altitudeMode>relativeToGround</altitudeMode>
        <coordinates> 168.376009,-45.436611,0.000000</coordinates>
      </Point>
    </Placemark>
    <Placemark>
      <name>ISLANDS HUT</name>
      <styleUrl>#IconStyle00</styleUrl>
      <Snippet></Snippet>
      <Point>
        <extrude>0</extrude>
        <altitudeMode>relativeToGround</altitudeMode>
        <coordinates> 168.289978,-45.471030,0.000000</coordinates>
      </Point>
    </Placemark>
    <Placemark>
      <name>BEECH HUT</name>
      <styleUrl>#IconStyle00</styleUrl>
      <Snippet></Snippet>
      <Point>
        <extrude>0</extrude>
        <altitudeMode>relativeToGround</altitudeMode>
        <coordinates> 168.435405,-45.346755,0.000000</coordinates>
      </Point>
    </Placemark>
    <Placemark>
      <name>CASCADE HUT</name>
      <styleUrl>#IconStyle00</styleUrl>
      <Snippet></Snippet>
      <Point>
        <extrude>0</extrude>
        <altitudeMode>relativeToGround</altitudeMode>
        <coordinates> 176.111675,-39.057951,0.000000</coordinates>
      </Point>
    </Placemark>
    <Placemark>
      <name>MCKINNON HUT</name>
      <styleUrl>#IconStyle00</styleUrl>
      <Snippet></Snippet>
      <Point>
        <extrude>0</extrude>
        <altitudeMode>relativeToGround</altitudeMode>
        <coordinates> 176.094344,-39.782235,0.000000</coordinates>
      </Point>
    </Placemark>
    <Placemark>
      <name>HOWLETTS HUT</name>
      <styleUrl>#IconStyle00</styleUrl>
      <Snippet></Snippet>
      <Point>
        <extrude>0</extrude>
        <altitudeMode>relativeToGround</altitudeMode>
        <coordinates> 176.131501,-39.904704,0.000000</coordinates>
      </Point>
    </Placemark>
    <Placemark>
      <name>TOP GORGE HUT</name>
      <styleUrl>#IconStyle00</styleUrl>
      <Snippet></Snippet>
      <Point>
        <extrude>0</extrude>
        <altitudeMode>relativeToGround</altitudeMode>
        <coordinates> 176.105106,-39.967612,0.000000</coordinates>
      </Point>
    </Placemark>
    <Placemark>
      <name>CENTRAL WAIAU HUT</name>
      <styleUrl>#IconStyle00</styleUrl>
      <Snippet></Snippet>
      <Point>
        <extrude>0</extrude>
        <altitudeMode>relativeToGround</altitudeMode>
        <coordinates> 176.846195,-38.768700,0.000000</coordinates>
      </Point>
    </Placemark>
    <Placemark>
      <name>MANGAMATE HUT</name>
      <styleUrl>#IconStyle00</styleUrl>
      <Snippet></Snippet>
      <Point>
        <extrude>0</extrude>
        <altitudeMode>relativeToGround</altitudeMode>
        <coordinates> 176.688883,-38.755853,0.000000</coordinates>
      </Point>
    </Placemark>
    <Placemark>
      <name>MANGAKAHIKA HUT</name>
      <styleUrl>#IconStyle00</styleUrl>
      <Snippet></Snippet>
      <Point>
        <extrude>0</extrude>
        <altitudeMode>relativeToGround</altitudeMode>
        <coordinates> 176.772775,-38.806595,0.000000</coordinates>
      </Point>
    </Placemark>
    <Placemark>
      <name>DALY'S CLEARING HUT</name>
      <styleUrl>#IconStyle00</styleUrl>
      <Snippet></Snippet>
      <Point>
        <extrude>0</extrude>
        <altitudeMode>relativeToGround</altitudeMode>
        <coordinates> 175.762991,-37.484582,0.000000</coordinates>
      </Point>
    </Placemark>
    <Placemark>
      <name>DE LA BECHE HUT</name>
      <styleUrl>#IconStyle00</styleUrl>
      <Snippet></Snippet>
      <Point>
        <extrude>0</extrude>
        <altitudeMode>relativeToGround</altitudeMode>
        <coordinates> 170.241943,-43.548286,0.000000</coordinates>
      </Point>
    </Placemark>
    <Placemark>
      <name>CENTRAL WHIRINAKI HUT</name>
      <styleUrl>#IconStyle00</styleUrl>
      <Snippet></Snippet>
      <Point>
        <extrude>0</extrude>
        <altitudeMode>relativeToGround</altitudeMode>
        <coordinates> 176.652175,-38.773680,0.000000</coordinates>
      </Point>
    </Placemark>
    <Placemark>
      <name>LEITCHS HUT</name>
      <styleUrl>#IconStyle00</styleUrl>
      <Snippet></Snippet>
      <Point>
        <extrude>0</extrude>
        <altitudeMode>relativeToGround</altitudeMode>
        <coordinates> 174.778650,-38.433386,0.000000</coordinates>
      </Point>
    </Placemark>
    <Placemark>
      <name>MOTUTAPERE HUT</name>
      <styleUrl>#IconStyle00</styleUrl>
      <Snippet></Snippet>
      <Point>
        <extrude>0</extrude>
        <altitudeMode>relativeToGround</altitudeMode>
        <coordinates> 175.840850,-37.622076,0.000000</coordinates>
      </Point>
    </Placemark>
    <Placemark>
      <name>MANGAMUKA HUT</name>
      <styleUrl>#IconStyle00</styleUrl>
      <Snippet></Snippet>
      <Point>
        <extrude>0</extrude>
        <altitudeMode>relativeToGround</altitudeMode>
        <coordinates> 175.895668,-37.788102,0.000000</coordinates>
      </Point>
    </Placemark>
    <Placemark>
      <name>KAURITATAHI HUT</name>
      <styleUrl>#IconStyle00</styleUrl>
      <Snippet></Snippet>
      <Point>
        <extrude>0</extrude>
        <altitudeMode>relativeToGround</altitudeMode>
        <coordinates> 175.861193,-37.665087,0.000000</coordinates>
      </Point>
    </Placemark>
    <Placemark>
      <name>BOG INN HUT</name>
      <styleUrl>#IconStyle00</styleUrl>
      <Snippet></Snippet>
      <Point>
        <extrude>0</extrude>
        <altitudeMode>relativeToGround</altitudeMode>
        <coordinates> 175.628892,-38.583164,0.000000</coordinates>
      </Point>
    </Placemark>
    <Placemark>
      <name># ROGERS HUT (TE WAIROA)</name>
      <styleUrl>#IconStyle00</styleUrl>
      <Snippet></Snippet>
      <Point>
        <extrude>0</extrude>
        <altitudeMode>relativeToGround</altitudeMode>
        <coordinates> 176.788942,-38.753476,0.000000</coordinates>
      </Point>
    </Placemark>
    <Placemark>
      <name>MOERANGI HUT</name>
      <styleUrl>#IconStyle00</styleUrl>
      <Snippet></Snippet>
      <Point>
        <extrude>0</extrude>
        <altitudeMode>relativeToGround</altitudeMode>
        <coordinates> 176.723690,-38.747830,0.000000</coordinates>
      </Point>
    </Placemark>
    <Placemark>
      <name>TE REREATUKAHIA HUT</name>
      <styleUrl>#IconStyle00</styleUrl>
      <Snippet></Snippet>
      <Point>
        <extrude>0</extrude>
        <altitudeMode>relativeToGround</altitudeMode>
        <coordinates> 175.830728,-37.586096,0.000000</coordinates>
      </Point>
    </Placemark>
    <Placemark>
      <name>OAMARU HUT</name>
      <styleUrl>#IconStyle00</styleUrl>
      <Snippet></Snippet>
      <Point>
        <extrude>0</extrude>
        <altitudeMode>relativeToGround</altitudeMode>
        <coordinates> 176.264016,-39.076231,0.000000</coordinates>
      </Point>
    </Placemark>
    <Placemark>
      <name>LOCH MAREE HUT</name>
      <styleUrl>#IconStyle00</styleUrl>
      <Snippet></Snippet>
      <Point>
        <extrude>0</extrude>
        <altitudeMode>relativeToGround</altitudeMode>
        <coordinates> 167.065667,-45.684869,0.000000</coordinates>
      </Point>
    </Placemark>
    <Placemark>
      <name>SUPPER COVE HUT</name>
      <styleUrl>#IconStyle00</styleUrl>
      <Snippet></Snippet>
      <Point>
        <extrude>0</extrude>
        <altitudeMode>relativeToGround</altitudeMode>
        <coordinates> 166.944643,-45.702171,0.000000</coordinates>
      </Point>
    </Placemark>
    <Placemark>
      <name>SHEPHERD CREEK HUT</name>
      <styleUrl>#IconStyle00</styleUrl>
      <Snippet></Snippet>
      <Point>
        <extrude>0</extrude>
        <altitudeMode>relativeToGround</altitudeMode>
        <coordinates> 168.431718,-45.404984,0.000000</coordinates>
      </Point>
    </Placemark>
    <Placemark>
      <name>OLIVINE HUT</name>
      <styleUrl>#IconStyle00</styleUrl>
      <Snippet></Snippet>
      <Point>
        <extrude>0</extrude>
        <altitudeMode>relativeToGround</altitudeMode>
        <coordinates> 168.213989,-44.443694,0.000000</coordinates>
      </Point>
    </Placemark>
    <Placemark>
      <name>RED STAG HUT</name>
      <styleUrl>#IconStyle00</styleUrl>
      <Snippet></Snippet>
      <Point>
        <extrude>0</extrude>
        <altitudeMode>relativeToGround</altitudeMode>
        <coordinates> 170.502403,-43.540177,0.000000</coordinates>
      </Point>
    </Placemark>
    <Placemark>
      <name>UPPER SPEY HUT</name>
      <styleUrl>#IconStyle00</styleUrl>
      <Snippet></Snippet>
      <Point>
        <extrude>0</extrude>
        <altitudeMode>relativeToGround</altitudeMode>
        <coordinates> 167.163356,-45.580266,0.000000</coordinates>
      </Point>
    </Placemark>
    <Placemark>
      <name>DEMON TRAIL HUT</name>
      <styleUrl>#IconStyle00</styleUrl>
      <Snippet></Snippet>
      <Point>
        <extrude>0</extrude>
        <altitudeMode>relativeToGround</altitudeMode>
        <coordinates> 168.072255,-44.494691,0.000000</coordinates>
      </Point>
    </Placemark>
    <Placemark>
      <name>KINTAIL HUT</name>
      <styleUrl>#IconStyle00</styleUrl>
      <Snippet></Snippet>
      <Point>
        <extrude>0</extrude>
        <altitudeMode>relativeToGround</altitudeMode>
        <coordinates> 167.115854,-45.614558,0.000000</coordinates>
      </Point>
    </Placemark>
    <Placemark>
      <name>PEACH COVE HUT</name>
      <styleUrl>#IconStyle00</styleUrl>
      <Snippet></Snippet>
      <Point>
        <extrude>0</extrude>
        <altitudeMode>relativeToGround</altitudeMode>
        <coordinates> 174.566218,-35.857295,0.000000</coordinates>
      </Point>
    </Placemark>
    <Placemark>
      <name>THE GUT HUT</name>
      <styleUrl>#IconStyle00</styleUrl>
      <Snippet></Snippet>
      <Point>
        <extrude>0</extrude>
        <altitudeMode>relativeToGround</altitudeMode>
        <coordinates> 166.956153,-45.295574,0.000000</coordinates>
      </Point>
    </Placemark>
    <Placemark>
      <name>LOWER PRINCHESTER HUT</name>
      <styleUrl>#IconStyle00</styleUrl>
      <Snippet></Snippet>
      <Point>
        <extrude>0</extrude>
        <altitudeMode>relativeToGround</altitudeMode>
        <coordinates> 167.957708,-45.593260,0.000000</coordinates>
      </Point>
    </Placemark>
    <Placemark>
      <name>LANE COVE HUT</name>
      <styleUrl>#IconStyle00</styleUrl>
      <Snippet></Snippet>
      <Point>
        <extrude>0</extrude>
        <altitudeMode>relativeToGround</altitudeMode>
        <coordinates> 173.732160,-35.011660,0.000000</coordinates>
      </Point>
    </Placemark>
    <Placemark>
      <name>RODGER INLET HISTORIC HUT</name>
      <styleUrl>#IconStyle00</styleUrl>
      <Snippet></Snippet>
      <Point>
        <extrude>0</extrude>
        <altitudeMode>relativeToGround</altitudeMode>
        <coordinates> 167.442758,-45.857533,0.000000</coordinates>
      </Point>
    </Placemark>
    <Placemark>
      <name>HALFWAY HUT</name>
      <styleUrl>#IconStyle00</styleUrl>
      <Snippet></Snippet>
      <Point>
        <extrude>0</extrude>
        <altitudeMode>relativeToGround</altitudeMode>
        <coordinates> 167.143815,-45.754298,0.000000</coordinates>
      </Point>
    </Placemark>
    <Placemark>
      <name>MCLENNAN HUT</name>
      <styleUrl>#IconStyle00</styleUrl>
      <Snippet></Snippet>
      <Point>
        <extrude>0</extrude>
        <altitudeMode>relativeToGround</altitudeMode>
        <coordinates> 169.361879,-46.433267,0.000000</coordinates>
      </Point>
    </Placemark>
    <Placemark>
      <name>SPOON HUT</name>
      <styleUrl>#IconStyle00</styleUrl>
      <Snippet></Snippet>
      <Point>
        <extrude>0</extrude>
        <altitudeMode>relativeToGround</altitudeMode>
        <coordinates> 168.311119,-44.165627,0.000000</coordinates>
      </Point>
    </Placemark>
    <Placemark>
      <name>THOMAS RIVER HUT</name>
      <styleUrl>#IconStyle00</styleUrl>
      <Snippet></Snippet>
      <Point>
        <extrude>0</extrude>
        <altitudeMode>relativeToGround</altitudeMode>
        <coordinates> 169.195092,-43.893734,0.000000</coordinates>
      </Point>
    </Placemark>
    <Placemark>
      <name>TAUTUKU HUT</name>
      <styleUrl>#IconStyle00</styleUrl>
      <Snippet></Snippet>
      <Point>
        <extrude>0</extrude>
        <altitudeMode>relativeToGround</altitudeMode>
        <coordinates> 169.324140,-46.554583,0.000000</coordinates>
      </Point>
    </Placemark>
    <Placemark>
      <name>LAKE MACKENZIE HUT</name>
      <styleUrl>#IconStyle00</styleUrl>
      <Snippet></Snippet>
      <Point>
        <extrude>0</extrude>
        <altitudeMode>relativeToGround</altitudeMode>
        <coordinates> 168.174537,-44.767682,0.000000</coordinates>
      </Point>
    </Placemark>
    <Placemark>
      <name>WAIRAURAHIRI HUT</name>
      <styleUrl>#IconStyle00</styleUrl>
      <Snippet></Snippet>
      <Point>
        <extrude>0</extrude>
        <altitudeMode>relativeToGround</altitudeMode>
        <coordinates> 167.219213,-46.254367,0.000000</coordinates>
      </Point>
    </Placemark>
    <Placemark>
      <name>WAITUTU HUT</name>
      <styleUrl>#IconStyle00</styleUrl>
      <Snippet></Snippet>
      <Point>
        <extrude>0</extrude>
        <altitudeMode>relativeToGround</altitudeMode>
        <coordinates> 167.064805,-46.237039,0.000000</coordinates>
      </Point>
    </Placemark>
    <Placemark>
      <name>LAKE THOMSON HUT</name>
      <styleUrl>#IconStyle00</styleUrl>
      <Snippet></Snippet>
      <Point>
        <extrude>0</extrude>
        <altitudeMode>relativeToGround</altitudeMode>
        <coordinates> 167.536470,-45.025944,0.000000</coordinates>
      </Point>
    </Placemark>
    <Placemark>
      <name>HUT -  NORTH ARM</name>
      <styleUrl>#IconStyle00</styleUrl>
      <Snippet></Snippet>
      <Point>
        <extrude>0</extrude>
        <altitudeMode>relativeToGround</altitudeMode>
        <coordinates> 168.018463,-46.882987,0.000000</coordinates>
      </Point>
    </Placemark>
    <Placemark>
      <name>LAKE HANKINSON HUT</name>
      <styleUrl>#IconStyle00</styleUrl>
      <Snippet></Snippet>
      <Point>
        <extrude>0</extrude>
        <altitudeMode>relativeToGround</altitudeMode>
        <coordinates> 167.573959,-45.046649,0.000000</coordinates>
      </Point>
    </Placemark>
    <Placemark>
      <name>PORT CRAIG SCHOOL</name>
      <styleUrl>#IconStyle00</styleUrl>
      <Snippet></Snippet>
      <Point>
        <extrude>0</extrude>
        <altitudeMode>relativeToGround</altitudeMode>
        <coordinates> 167.361632,-46.222579,0.000000</coordinates>
      </Point>
    </Placemark>
    <Placemark>
      <name>GEORGE SOUND HUT</name>
      <styleUrl>#IconStyle00</styleUrl>
      <Snippet></Snippet>
      <Point>
        <extrude>0</extrude>
        <altitudeMode>relativeToGround</altitudeMode>
        <coordinates> 167.439985,-44.984356,0.000000</coordinates>
      </Point>
    </Placemark>
    <Placemark>
      <name>MID TAIPO HUT</name>
      <styleUrl>#IconStyle00</styleUrl>
      <Snippet></Snippet>
      <Point>
        <extrude>0</extrude>
        <altitudeMode>relativeToGround</altitudeMode>
        <coordinates> 171.443304,-42.850063,0.000000</coordinates>
      </Point>
    </Placemark>
    <Placemark>
      <name>DILLONS HOMESTEAD HUT (1945)</name>
      <styleUrl>#IconStyle00</styleUrl>
      <Snippet></Snippet>
      <Point>
        <extrude>0</extrude>
        <altitudeMode>relativeToGround</altitudeMode>
        <coordinates> 171.485589,-42.783902,0.000000</coordinates>
      </Point>
    </Placemark>
    <Placemark>
      <name>Top Trent (Lagoon) HUT</name>
      <styleUrl>#IconStyle00</styleUrl>
      <Snippet></Snippet>
      <Point>
        <extrude>0</extrude>
        <altitudeMode>relativeToGround</altitudeMode>
        <coordinates> 171.832959,-42.699726,0.000000</coordinates>
      </Point>
    </Placemark>
    <Placemark>
      <name>Waikiti HUT</name>
      <styleUrl>#IconStyle00</styleUrl>
      <Snippet></Snippet>
      <Point>
        <extrude>0</extrude>
        <altitudeMode>relativeToGround</altitudeMode>
        <coordinates> 171.853951,-42.614467,0.000000</coordinates>
      </Point>
    </Placemark>
    <Placemark>
      <name>ALBERT BURN HUT</name>
      <styleUrl>#IconStyle00</styleUrl>
      <Snippet></Snippet>
      <Point>
        <extrude>0</extrude>
        <altitudeMode>relativeToGround</altitudeMode>
        <coordinates> 169.034410,-44.342690,0.000000</coordinates>
      </Point>
    </Placemark>
    <Placemark>
      <name>MAKARORA HUT</name>
      <styleUrl>#IconStyle00</styleUrl>
      <Snippet></Snippet>
      <Point>
        <extrude>0</extrude>
        <altitudeMode>relativeToGround</altitudeMode>
        <coordinates> 169.440170,-44.127516,0.000000</coordinates>
      </Point>
    </Placemark>
    <Placemark>
      <name>CAMERON HUT</name>
      <styleUrl>#IconStyle00</styleUrl>
      <Snippet></Snippet>
      <Point>
        <extrude>0</extrude>
        <altitudeMode>relativeToGround</altitudeMode>
        <coordinates> 169.315766,-44.199009,0.000000</coordinates>
      </Point>
    </Placemark>
    <Placemark>
      <name>LAKE ROE HUT</name>
      <styleUrl>#IconStyle00</styleUrl>
      <Snippet></Snippet>
      <Point>
        <extrude>0</extrude>
        <altitudeMode>relativeToGround</altitudeMode>
        <coordinates> 167.143733,-45.703603,0.000000</coordinates>
      </Point>
    </Placemark>
    <Placemark>
      <name>HAUROKO BURN HUT</name>
      <styleUrl>#IconStyle00</styleUrl>
      <Snippet></Snippet>
      <Point>
        <extrude>0</extrude>
        <altitudeMode>relativeToGround</altitudeMode>
        <coordinates> 167.145419,-45.830870,0.000000</coordinates>
      </Point>
    </Placemark>
    <Placemark>
      <name>KERIN FORKS HUT</name>
      <styleUrl>#IconStyle00</styleUrl>
      <Snippet></Snippet>
      <Point>
        <extrude>0</extrude>
        <altitudeMode>relativeToGround</altitudeMode>
        <coordinates> 169.036372,-44.238239,0.000000</coordinates>
      </Point>
    </Placemark>
    <Placemark>
      <name>TOP FORKS HUT</name>
      <styleUrl>#IconStyle00</styleUrl>
      <Snippet></Snippet>
      <Point>
        <extrude>0</extrude>
        <altitudeMode>relativeToGround</altitudeMode>
        <coordinates> 168.890984,-44.274577,0.000000</coordinates>
      </Point>
    </Placemark>
    <Placemark>
      <name>TOP FORKS OLD HUT</name>
      <styleUrl>#IconStyle00</styleUrl>
      <Snippet></Snippet>
      <Point>
        <extrude>0</extrude>
        <altitudeMode>relativeToGround</altitudeMode>
        <coordinates> 168.890984,-44.274577,0.000000</coordinates>
      </Point>
    </Placemark>
    <Placemark>
      <name>ROCKBURN HUT/ MCINTYRES HUT</name>
      <styleUrl>#IconStyle00</styleUrl>
      <Snippet></Snippet>
      <Point>
        <extrude>0</extrude>
        <altitudeMode>relativeToGround</altitudeMode>
        <coordinates> 168.308871,-44.670470,0.000000</coordinates>
      </Point>
    </Placemark>
    <Placemark>
      <name>ROUTEBURN FLATS HUT</name>
      <styleUrl>#IconStyle00</styleUrl>
      <Snippet></Snippet>
      <Point>
        <extrude>0</extrude>
        <altitudeMode>relativeToGround</altitudeMode>
        <coordinates> 168.214711,-44.725185,0.000000</coordinates>
      </Point>
    </Placemark>
    <Placemark>
      <name>BIG HOPWOOD BURN HUT</name>
      <styleUrl>#IconStyle00</styleUrl>
      <Snippet></Snippet>
      <Point>
        <extrude>0</extrude>
        <altitudeMode>relativeToGround</altitudeMode>
        <coordinates> 169.324423,-44.301873,0.000000</coordinates>
      </Point>
    </Placemark>
    <Placemark>
      <name>FERGUSON HUT</name>
      <styleUrl>#IconStyle00</styleUrl>
      <Snippet></Snippet>
      <Point>
        <extrude>0</extrude>
        <altitudeMode>relativeToGround</altitudeMode>
        <coordinates> 169.550765,-44.119713,0.000000</coordinates>
      </Point>
    </Placemark>
    <Placemark>
      <name>FORBES HUT</name>
      <styleUrl>#IconStyle00</styleUrl>
      <Snippet></Snippet>
      <Point>
        <extrude>0</extrude>
        <altitudeMode>relativeToGround</altitudeMode>
        <coordinates> 169.618563,-44.048765,0.000000</coordinates>
      </Point>
    </Placemark>
    <Placemark>
      <name>GORGE RIVER HUT</name>
      <styleUrl>#IconStyle00</styleUrl>
      <Snippet></Snippet>
      <Point>
        <extrude>0</extrude>
        <altitudeMode>relativeToGround</altitudeMode>
        <coordinates> 168.193423,-44.183420,0.000000</coordinates>
      </Point>
    </Placemark>
    <Placemark>
      <name>COUNTY STREAM HUT</name>
      <styleUrl>#IconStyle00</styleUrl>
      <Snippet></Snippet>
      <Point>
        <extrude>0</extrude>
        <altitudeMode>relativeToGround</altitudeMode>
        <coordinates> 170.850327,-43.158146,0.000000</coordinates>
      </Point>
    </Placemark>
    <Placemark>
      <name>SERPENTINE HUT</name>
      <styleUrl>#IconStyle00</styleUrl>
      <Snippet></Snippet>
      <Point>
        <extrude>0</extrude>
        <altitudeMode>relativeToGround</altitudeMode>
        <coordinates> 171.079931,-43.013682,0.000000</coordinates>
      </Point>
    </Placemark>
    <Placemark>
      <name>MANSON HUT</name>
      <styleUrl>#IconStyle00</styleUrl>
      <Snippet></Snippet>
      <Point>
        <extrude>0</extrude>
        <altitudeMode>relativeToGround</altitudeMode>
        <coordinates> 176.260051,-39.296221,0.000000</coordinates>
      </Point>
    </Placemark>
    <Placemark>
      <name>CATTLE CREEK HUT</name>
      <styleUrl>#IconStyle00</styleUrl>
      <Snippet></Snippet>
      <Point>
        <extrude>0</extrude>
        <altitudeMode>relativeToGround</altitudeMode>
        <coordinates> 176.062642,-40.065177,0.000000</coordinates>
      </Point>
    </Placemark>
    <Placemark>
      <name>BALLARD HUT</name>
      <styleUrl>#IconStyle00</styleUrl>
      <Snippet></Snippet>
      <Point>
        <extrude>0</extrude>
        <altitudeMode>relativeToGround</altitudeMode>
        <coordinates> 176.369850,-39.238000,0.000000</coordinates>
      </Point>
    </Placemark>
    <Placemark>
      <name>MANSON BIVY</name>
      <styleUrl>#IconStyle00</styleUrl>
      <Snippet></Snippet>
      <Point>
        <extrude>0</extrude>
        <altitudeMode>relativeToGround</altitudeMode>
        <coordinates> 176.287220,-39.297339,0.000000</coordinates>
      </Point>
    </Placemark>
    <Placemark>
      <name>GRIFFIN CREEK HUT</name>
      <styleUrl>#IconStyle00</styleUrl>
      <Snippet></Snippet>
      <Point>
        <extrude>0</extrude>
        <altitudeMode>relativeToGround</altitudeMode>
        <coordinates> 171.382545,-42.797792,0.000000</coordinates>
      </Point>
    </Placemark>
    <Placemark>
      <name>MANGATURUTU HUT</name>
      <styleUrl>#IconStyle00</styleUrl>
      <Snippet></Snippet>
      <Point>
        <extrude>0</extrude>
        <altitudeMode>relativeToGround</altitudeMode>
        <coordinates> 176.329790,-39.219282,0.000000</coordinates>
      </Point>
    </Placemark>
    <Placemark>
      <name>HARKNESS HUT</name>
      <styleUrl>#IconStyle00</styleUrl>
      <Snippet></Snippet>
      <Point>
        <extrude>0</extrude>
        <altitudeMode>relativeToGround</altitudeMode>
        <coordinates> 176.238337,-39.195063,0.000000</coordinates>
      </Point>
    </Placemark>
    <Placemark>
      <name>MANGATAINOKA HUT</name>
      <styleUrl>#IconStyle00</styleUrl>
      <Snippet></Snippet>
      <Point>
        <extrude>0</extrude>
        <altitudeMode>relativeToGround</altitudeMode>
        <coordinates> 176.293829,-39.143890,0.000000</coordinates>
      </Point>
    </Placemark>
    <Placemark>
      <name>AVOCA HOMESTEAD</name>
      <styleUrl>#IconStyle00</styleUrl>
      <Snippet></Snippet>
      <Point>
        <extrude>0</extrude>
        <altitudeMode>relativeToGround</altitudeMode>
        <coordinates> 171.875327,-43.194464,0.000000</coordinates>
      </Point>
    </Placemark>
    <Placemark>
      <name>BIG BAY HUT</name>
      <styleUrl>#IconStyle00</styleUrl>
      <Snippet></Snippet>
      <Point>
        <extrude>0</extrude>
        <altitudeMode>relativeToGround</altitudeMode>
        <coordinates> 168.114970,-44.299094,0.000000</coordinates>
      </Point>
    </Placemark>
    <Placemark>
      <name>FRISCO HUT</name>
      <styleUrl>#IconStyle00</styleUrl>
      <Snippet></Snippet>
      <Point>
        <extrude>0</extrude>
        <altitudeMode>relativeToGround</altitudeMode>
        <coordinates> 171.110890,-43.031712,0.000000</coordinates>
      </Point>
    </Placemark>
    <Placemark>
      <name>PINNACLE BIV</name>
      <styleUrl>#IconStyle00</styleUrl>
      <Snippet></Snippet>
      <Point>
        <extrude>0</extrude>
        <altitudeMode>relativeToGround</altitudeMode>
        <coordinates> 171.178317,-42.938192,0.000000</coordinates>
      </Point>
    </Placemark>
    <Placemark>
      <name>EXPLORER HUT</name>
      <styleUrl>#IconStyle00</styleUrl>
      <Snippet></Snippet>
      <Point>
        <extrude>0</extrude>
        <altitudeMode>relativeToGround</altitudeMode>
        <coordinates> 170.934290,-43.003023,0.000000</coordinates>
      </Point>
    </Placemark>
    <Placemark>
      <name>SHALLOW BAY HUT</name>
      <styleUrl>#IconStyle00</styleUrl>
      <Snippet></Snippet>
      <Point>
        <extrude>0</extrude>
        <altitudeMode>relativeToGround</altitudeMode>
        <coordinates> 167.612639,-45.493261,0.000000</coordinates>
      </Point>
    </Placemark>
    <Placemark>
      <name>WAIAWA HUT</name>
      <styleUrl>#IconStyle00</styleUrl>
      <Snippet></Snippet>
      <Point>
        <extrude>0</extrude>
        <altitudeMode>relativeToGround</altitudeMode>
        <coordinates> 177.046399,-38.565191,0.000000</coordinates>
      </Point>
    </Placemark>
    <Placemark>
      <name>TAWHIWHI HUT</name>
      <styleUrl>#IconStyle00</styleUrl>
      <Snippet></Snippet>
      <Point>
        <extrude>0</extrude>
        <altitudeMode>relativeToGround</altitudeMode>
        <coordinates> 176.989409,-38.512189,0.000000</coordinates>
      </Point>
    </Placemark>
    <Placemark>
      <name>BLACK BIRCH BIVY</name>
      <styleUrl>#IconStyle00</styleUrl>
      <Snippet></Snippet>
      <Point>
        <extrude>0</extrude>
        <altitudeMode>relativeToGround</altitudeMode>
        <coordinates> 176.438271,-39.301916,0.000000</coordinates>
      </Point>
    </Placemark>
    <Placemark>
      <name>STUDHOLME SADDLE HUT</name>
      <styleUrl>#IconStyle00</styleUrl>
      <Snippet></Snippet>
      <Point>
        <extrude>0</extrude>
        <altitudeMode>relativeToGround</altitudeMode>
        <coordinates> 176.363988,-39.301413,0.000000</coordinates>
      </Point>
    </Placemark>
    <Placemark>
      <name>KIWI SADDLE HUT</name>
      <styleUrl>#IconStyle00</styleUrl>
      <Snippet></Snippet>
      <Point>
        <extrude>0</extrude>
        <altitudeMode>relativeToGround</altitudeMode>
        <coordinates> 176.321067,-39.332994,0.000000</coordinates>
      </Point>
    </Placemark>
    <Placemark>
      <name>MAKINO HUT</name>
      <styleUrl>#IconStyle00</styleUrl>
      <Snippet></Snippet>
      <Point>
        <extrude>0</extrude>
        <altitudeMode>relativeToGround</altitudeMode>
        <coordinates> 176.407649,-39.189707,0.000000</coordinates>
      </Point>
    </Placemark>
    <Placemark>
      <name>NIKAU FLAT HUT</name>
      <styleUrl>#IconStyle00</styleUrl>
      <Snippet></Snippet>
      <Point>
        <extrude>0</extrude>
        <altitudeMode>relativeToGround</altitudeMode>
        <coordinates> 177.289837,-38.356079,0.000000</coordinates>
      </Point>
    </Placemark>
    <Placemark>
      <name>TE WAITI HUT</name>
      <styleUrl>#IconStyle00</styleUrl>
      <Snippet></Snippet>
      <Point>
        <extrude>0</extrude>
        <altitudeMode>relativeToGround</altitudeMode>
        <coordinates> 177.403012,-38.167716,0.000000</coordinates>
      </Point>
    </Placemark>
    <Placemark>
      <name>IKAWATEA FORKS HUT</name>
      <styleUrl>#IconStyle00</styleUrl>
      <Snippet></Snippet>
      <Point>
        <extrude>0</extrude>
        <altitudeMode>relativeToGround</altitudeMode>
        <coordinates> 176.197529,-39.590129,0.000000</coordinates>
      </Point>
    </Placemark>
    <Placemark>
      <name>OTUKOTA HUT</name>
      <styleUrl>#IconStyle00</styleUrl>
      <Snippet></Snippet>
      <Point>
        <extrude>0</extrude>
        <altitudeMode>relativeToGround</altitudeMode>
        <coordinates> 176.086105,-39.703141,0.000000</coordinates>
      </Point>
    </Placemark>
    <Placemark>
      <name>TOP WAITAHA HUT</name>
      <styleUrl>#IconStyle00</styleUrl>
      <Snippet></Snippet>
      <Point>
        <extrude>0</extrude>
        <altitudeMode>relativeToGround</altitudeMode>
        <coordinates> 170.876431,-43.131386,0.000000</coordinates>
      </Point>
    </Placemark>
    <Placemark>
      <name>KIWI FLAT HUT</name>
      <styleUrl>#IconStyle00</styleUrl>
      <Snippet></Snippet>
      <Point>
        <extrude>0</extrude>
        <altitudeMode>relativeToGround</altitudeMode>
        <coordinates> 170.746614,-43.135430,0.000000</coordinates>
      </Point>
    </Placemark>
    <Placemark>
      <name>SCAMPER TORRENT HUT</name>
      <styleUrl>#IconStyle00</styleUrl>
      <Snippet></Snippet>
      <Point>
        <extrude>0</extrude>
        <altitudeMode>relativeToGround</altitudeMode>
        <coordinates> 170.737350,-43.153256,0.000000</coordinates>
      </Point>
    </Placemark>
    <Placemark>
      <name>IVORY LAKE HUT</name>
      <styleUrl>#IconStyle00</styleUrl>
      <Snippet></Snippet>
      <Point>
        <extrude>0</extrude>
        <altitudeMode>relativeToGround</altitudeMode>
        <coordinates> 170.912614,-43.134988,0.000000</coordinates>
      </Point>
    </Placemark>
    <Placemark>
      <name>ROCKY CREEK HUT</name>
      <styleUrl>#IconStyle00</styleUrl>
      <Snippet></Snippet>
      <Point>
        <extrude>0</extrude>
        <altitudeMode>relativeToGround</altitudeMode>
        <coordinates> 171.408537,-42.785558,0.000000</coordinates>
      </Point>
    </Placemark>
    <Placemark>
      <name>WAKELINGS HUT</name>
      <styleUrl>#IconStyle00</styleUrl>
      <Snippet></Snippet>
      <Point>
        <extrude>0</extrude>
        <altitudeMode>relativeToGround</altitudeMode>
        <coordinates> 176.128170,-39.754736,0.000000</coordinates>
      </Point>
    </Placemark>
    <Placemark>
      <name>MAROPEA FORKS HUT</name>
      <styleUrl>#IconStyle00</styleUrl>
      <Snippet></Snippet>
      <Point>
        <extrude>0</extrude>
        <altitudeMode>relativeToGround</altitudeMode>
        <coordinates> 176.137501,-39.729695,0.000000</coordinates>
      </Point>
    </Placemark>
    <Placemark>
      <name>GERHARDT BIV</name>
      <styleUrl>#IconStyle00</styleUrl>
      <Snippet></Snippet>
      <Point>
        <extrude>0</extrude>
        <altitudeMode>relativeToGround</altitudeMode>
        <coordinates> 171.096343,-42.972985,0.000000</coordinates>
      </Point>
    </Placemark>
    <Placemark>
      <name>HUT - BIG HELLFIRE</name>
      <styleUrl>#IconStyle00</styleUrl>
      <Snippet></Snippet>
      <Point>
        <extrude>0</extrude>
        <altitudeMode>relativeToGround</altitudeMode>
        <coordinates> 167.737918,-46.814187,0.000000</coordinates>
      </Point>
    </Placemark>
    <Placemark>
      <name>Jacko Flat HUT</name>
      <styleUrl>#IconStyle00</styleUrl>
      <Snippet></Snippet>
      <Point>
        <extrude>0</extrude>
        <altitudeMode>relativeToGround</altitudeMode>
        <coordinates> 171.631010,-42.707936,0.000000</coordinates>
      </Point>
    </Placemark>
    <Placemark>
      <name>CRAWFORD BIV</name>
      <styleUrl>#IconStyle00</styleUrl>
      <Snippet></Snippet>
      <Point>
        <extrude>0</extrude>
        <altitudeMode>relativeToGround</altitudeMode>
        <coordinates> 171.277253,-42.933997,0.000000</coordinates>
      </Point>
    </Placemark>
    <Placemark>
      <name>HUT -  PORT WILLIAM</name>
      <styleUrl>#IconStyle00</styleUrl>
      <Snippet></Snippet>
      <Point>
        <extrude>0</extrude>
        <altitudeMode>relativeToGround</altitudeMode>
        <coordinates> 168.086513,-46.836276,0.000000</coordinates>
      </Point>
    </Placemark>
    <Placemark>
      <name>STANFIELD HUT</name>
      <styleUrl>#IconStyle00</styleUrl>
      <Snippet></Snippet>
      <Point>
        <extrude>0</extrude>
        <altitudeMode>relativeToGround</altitudeMode>
        <coordinates> 176.047252,-40.088120,0.000000</coordinates>
      </Point>
    </Placemark>
    <Placemark>
      <name>DEAD DOG HUT</name>
      <styleUrl>#IconStyle00</styleUrl>
      <Snippet></Snippet>
      <Point>
        <extrude>0</extrude>
        <altitudeMode>relativeToGround</altitudeMode>
        <coordinates> 176.297149,-39.578299,0.000000</coordinates>
      </Point>
    </Placemark>
    <Placemark>
      <name>ROCKS AHEAD HUT</name>
      <styleUrl>#IconStyle00</styleUrl>
      <Snippet></Snippet>
      <Point>
        <extrude>0</extrude>
        <altitudeMode>relativeToGround</altitudeMode>
        <coordinates> 176.296614,-39.275427,0.000000</coordinates>
      </Point>
    </Placemark>
    <Placemark>
      <name>VENISON TOPS HUT (TIRA HUT)</name>
      <styleUrl>#IconStyle00</styleUrl>
      <Snippet></Snippet>
      <Point>
        <extrude>0</extrude>
        <altitudeMode>relativeToGround</altitudeMode>
        <coordinates> 176.320758,-39.246789,0.000000</coordinates>
      </Point>
    </Placemark>
    <Placemark>
      <name>TOP CRAWFORD HUT</name>
      <styleUrl>#IconStyle00</styleUrl>
      <Snippet></Snippet>
      <Point>
        <extrude>0</extrude>
        <altitudeMode>relativeToGround</altitudeMode>
        <coordinates> 171.254987,-42.941764,0.000000</coordinates>
      </Point>
    </Placemark>
    <Placemark>
      <name>HEALEY CREEK HUT</name>
      <styleUrl>#IconStyle00</styleUrl>
      <Snippet></Snippet>
      <Point>
        <extrude>0</extrude>
        <altitudeMode>relativeToGround</altitudeMode>
        <coordinates> 170.911507,-43.048623,0.000000</coordinates>
      </Point>
    </Placemark>
    <Placemark>
      <name>TOP OLDEROG BIV</name>
      <styleUrl>#IconStyle00</styleUrl>
      <Snippet></Snippet>
      <Point>
        <extrude>0</extrude>
        <altitudeMode>relativeToGround</altitudeMode>
        <coordinates> 171.340335,-42.821493,0.000000</coordinates>
      </Point>
    </Placemark>
    <Placemark>
      <name>NEWTON CREEK HUT</name>
      <styleUrl>#IconStyle00</styleUrl>
      <Snippet></Snippet>
      <Point>
        <extrude>0</extrude>
        <altitudeMode>relativeToGround</altitudeMode>
        <coordinates> 171.377736,-42.840940,0.000000</coordinates>
      </Point>
    </Placemark>
    <Placemark>
      <name>RUAHINE HUT</name>
      <styleUrl>#IconStyle00</styleUrl>
      <Snippet></Snippet>
      <Point>
        <extrude>0</extrude>
        <altitudeMode>relativeToGround</altitudeMode>
        <coordinates> 176.324112,-39.557686,0.000000</coordinates>
      </Point>
    </Placemark>
    <Placemark>
      <name>DIANES HUT</name>
      <styleUrl>#IconStyle00</styleUrl>
      <Snippet></Snippet>
      <Point>
        <extrude>0</extrude>
        <altitudeMode>relativeToGround</altitudeMode>
        <coordinates> 176.283747,-39.541729,0.000000</coordinates>
      </Point>
    </Placemark>
    <Placemark>
      <name>HINERUA HUT</name>
      <styleUrl>#IconStyle00</styleUrl>
      <Snippet></Snippet>
      <Point>
        <extrude>0</extrude>
        <altitudeMode>relativeToGround</altitudeMode>
        <coordinates> 176.169319,-39.862214,0.000000</coordinates>
      </Point>
    </Placemark>
    <Placemark>
      <name>WAIKAMAKA HUT</name>
      <styleUrl>#IconStyle00</styleUrl>
      <Snippet></Snippet>
      <Point>
        <extrude>0</extrude>
        <altitudeMode>relativeToGround</altitudeMode>
        <coordinates> 176.134249,-39.811798,0.000000</coordinates>
      </Point>
    </Placemark>
    <Placemark>
      <name>UPPER MAKARORO HUT</name>
      <styleUrl>#IconStyle00</styleUrl>
      <Snippet></Snippet>
      <Point>
        <extrude>0</extrude>
        <altitudeMode>relativeToGround</altitudeMode>
        <coordinates> 176.227394,-39.680334,0.000000</coordinates>
      </Point>
    </Placemark>
    <Placemark>
      <name>GOLD CREEK HUT</name>
      <styleUrl>#IconStyle00</styleUrl>
      <Snippet></Snippet>
      <Point>
        <extrude>0</extrude>
        <altitudeMode>relativeToGround</altitudeMode>
        <coordinates> 176.196220,-39.762320,0.000000</coordinates>
      </Point>
    </Placemark>
    <Placemark>
      <name>COMET HUT</name>
      <styleUrl>#IconStyle00</styleUrl>
      <Snippet></Snippet>
      <Point>
        <extrude>0</extrude>
        <altitudeMode>relativeToGround</altitudeMode>
        <coordinates> 176.289885,-39.468458,0.000000</coordinates>
      </Point>
    </Placemark>
    <Placemark>
      <name>TUSSOCK HUT</name>
      <styleUrl>#IconStyle00</styleUrl>
      <Snippet></Snippet>
      <Point>
        <extrude>0</extrude>
        <altitudeMode>relativeToGround</altitudeMode>
        <coordinates> 176.214969,-39.165975,0.000000</coordinates>
      </Point>
    </Placemark>
    <Placemark>
      <name>DOMINIE HUT</name>
      <styleUrl>#IconStyle00</styleUrl>
      <Snippet></Snippet>
      <Point>
        <extrude>0</extrude>
        <altitudeMode>relativeToGround</altitudeMode>
        <coordinates> 176.394301,-39.280688,0.000000</coordinates>
      </Point>
    </Placemark>
    <Placemark>
      <name>OMARUKOKERE BIVY</name>
      <styleUrl>#IconStyle00</styleUrl>
      <Snippet></Snippet>
      <Point>
        <extrude>0</extrude>
        <altitudeMode>relativeToGround</altitudeMode>
        <coordinates> 176.291896,-39.249429,0.000000</coordinates>
      </Point>
    </Placemark>
    <Placemark>
      <name>OKUI HUT</name>
      <styleUrl>#IconStyle00</styleUrl>
      <Snippet></Snippet>
      <Point>
        <extrude>0</extrude>
        <altitudeMode>relativeToGround</altitudeMode>
        <coordinates> 176.788220,-38.527167,0.000000</coordinates>
      </Point>
    </Placemark>
    <Placemark>
      <name>WAIOPAOA HUT</name>
      <styleUrl>#IconStyle00</styleUrl>
      <Snippet></Snippet>
      <Point>
        <extrude>0</extrude>
        <altitudeMode>relativeToGround</altitudeMode>
        <coordinates> 176.993665,-38.809627,0.000000</coordinates>
      </Point>
    </Placemark>
    <Placemark>
      <name>HUT - FRESHWATER</name>
      <styleUrl>#IconStyle00</styleUrl>
      <Snippet></Snippet>
      <Point>
        <extrude>0</extrude>
        <altitudeMode>relativeToGround</altitudeMode>
        <coordinates> 167.919696,-46.868599,0.000000</coordinates>
      </Point>
    </Placemark>
    <Placemark>
      <name>SCOTTYS BIV</name>
      <styleUrl>#IconStyle00</styleUrl>
      <Snippet></Snippet>
      <Point>
        <extrude>0</extrude>
        <altitudeMode>relativeToGround</altitudeMode>
        <coordinates> 171.412862,-42.807222,0.000000</coordinates>
      </Point>
    </Placemark>
    <Placemark>
      <name>HUT - EAST RUGGEDY</name>
      <styleUrl>#IconStyle00</styleUrl>
      <Snippet></Snippet>
      <Point>
        <extrude>0</extrude>
        <altitudeMode>relativeToGround</altitudeMode>
        <coordinates> 167.746167,-46.723481,0.000000</coordinates>
      </Point>
    </Placemark>
    <Placemark>
      <name>HUT - MASON BAY</name>
      <styleUrl>#IconStyle00</styleUrl>
      <Snippet></Snippet>
      <Point>
        <extrude>0</extrude>
        <altitudeMode>relativeToGround</altitudeMode>
        <coordinates> 167.780334,-46.926519,0.000000</coordinates>
      </Point>
    </Placemark>
    <Placemark>
      <name>Lake Morgan HUT</name>
      <styleUrl>#IconStyle00</styleUrl>
      <Snippet></Snippet>
      <Point>
        <extrude>0</extrude>
        <altitudeMode>relativeToGround</altitudeMode>
        <coordinates> 171.709338,-42.663360,0.000000</coordinates>
      </Point>
    </Placemark>
    <Placemark>
      <name>Top Crooked HUT</name>
      <styleUrl>#IconStyle00</styleUrl>
      <Snippet></Snippet>
      <Point>
        <extrude>0</extrude>
        <altitudeMode>relativeToGround</altitudeMode>
        <coordinates> 171.691138,-42.704353,0.000000</coordinates>
      </Point>
    </Placemark>
    <Placemark>
      <name>FREW BIV</name>
      <styleUrl>#IconStyle00</styleUrl>
      <Snippet></Snippet>
      <Point>
        <extrude>0</extrude>
        <altitudeMode>relativeToGround</altitudeMode>
        <coordinates> 171.092061,-43.078034,0.000000</coordinates>
      </Point>
    </Placemark>
    <Placemark>
      <name>SIR ROBERT HUT</name>
      <styleUrl>#IconStyle00</styleUrl>
      <Snippet></Snippet>
      <Point>
        <extrude>0</extrude>
        <altitudeMode>relativeToGround</altitudeMode>
        <coordinates> 171.155078,-43.058744,0.000000</coordinates>
      </Point>
    </Placemark>
    <Placemark>
      <name>WAIHARURU HUT</name>
      <styleUrl>#IconStyle00</styleUrl>
      <Snippet></Snippet>
      <Point>
        <extrude>0</extrude>
        <altitudeMode>relativeToGround</altitudeMode>
        <coordinates> 177.033350,-38.743629,0.000000</coordinates>
      </Point>
    </Placemark>
    <Placemark>
      <name>MARAUITI HUT</name>
      <styleUrl>#IconStyle00</styleUrl>
      <Snippet></Snippet>
      <Point>
        <extrude>0</extrude>
        <altitudeMode>relativeToGround</altitudeMode>
        <coordinates> 176.995923,-38.767659,0.000000</coordinates>
      </Point>
    </Placemark>
    <Placemark>
      <name>MOONBEAM HUT</name>
      <styleUrl>#IconStyle00</styleUrl>
      <Snippet></Snippet>
      <Point>
        <extrude>0</extrude>
        <altitudeMode>relativeToGround</altitudeMode>
        <coordinates> 170.805624,-43.140098,0.000000</coordinates>
      </Point>
    </Placemark>
    <Placemark>
      <name>OTEHAKE HUT</name>
      <styleUrl>#IconStyle00</styleUrl>
      <Snippet></Snippet>
      <Point>
        <extrude>0</extrude>
        <altitudeMode>relativeToGround</altitudeMode>
        <coordinates> 171.710784,-42.857530,0.000000</coordinates>
      </Point>
    </Placemark>
    <Placemark>
      <name>BROWNING RANGE BIV</name>
      <styleUrl>#IconStyle00</styleUrl>
      <Snippet></Snippet>
      <Point>
        <extrude>0</extrude>
        <altitudeMode>relativeToGround</altitudeMode>
        <coordinates> 171.274290,-42.906271,0.000000</coordinates>
      </Point>
    </Placemark>
    <Placemark>
      <name>HAUHUNGAROA HUT</name>
      <styleUrl>#IconStyle00</styleUrl>
      <Snippet></Snippet>
      <Point>
        <extrude>0</extrude>
        <altitudeMode>relativeToGround</altitudeMode>
        <coordinates> 175.517993,-38.749360,0.000000</coordinates>
      </Point>
    </Placemark>
    <Placemark>
      <name>MANGAMAKO HUT</name>
      <styleUrl>#IconStyle00</styleUrl>
      <Snippet></Snippet>
      <Point>
        <extrude>0</extrude>
        <altitudeMode>relativeToGround</altitudeMode>
        <coordinates> 176.874983,-38.313070,0.000000</coordinates>
      </Point>
    </Placemark>
    <Placemark>
      <name>BOAR INN (Hut 34)</name>
      <styleUrl>#IconStyle00</styleUrl>
      <Snippet></Snippet>
      <Point>
        <extrude>0</extrude>
        <altitudeMode>relativeToGround</altitudeMode>
        <coordinates> 174.968335,-41.345797,0.000000</coordinates>
      </Point>
    </Placemark>
    <Placemark>
      <name>WAITAWHETA HUT</name>
      <styleUrl>#IconStyle00</styleUrl>
      <Snippet></Snippet>
      <Point>
        <extrude>0</extrude>
        <altitudeMode>relativeToGround</altitudeMode>
        <coordinates> 175.806288,-37.526245,0.000000</coordinates>
      </Point>
    </Placemark>
    <Placemark>
      <name>MIDWAY HUT</name>
      <styleUrl>#IconStyle00</styleUrl>
      <Snippet></Snippet>
      <Point>
        <extrude>0</extrude>
        <altitudeMode>relativeToGround</altitudeMode>
        <coordinates> 176.850905,-38.467345,0.000000</coordinates>
      </Point>
    </Placemark>
    <Placemark>
      <name>SKIPS (WHANGATAWHIA HUT )</name>
      <styleUrl>#IconStyle00</styleUrl>
      <Snippet></Snippet>
      <Point>
        <extrude>0</extrude>
        <altitudeMode>relativeToGround</altitudeMode>
        <coordinates> 176.800206,-38.720584,0.000000</coordinates>
      </Point>
    </Placemark>
    <Placemark>
      <name>MAC'S HUT</name>
      <styleUrl>#IconStyle00</styleUrl>
      <Snippet></Snippet>
      <Point>
        <extrude>0</extrude>
        <altitudeMode>relativeToGround</altitudeMode>
        <coordinates> 168.456399,-44.831463,0.000000</coordinates>
      </Point>
    </Placemark>
    <Placemark>
      <name>HERRICKS HUT</name>
      <styleUrl>#IconStyle00</styleUrl>
      <Snippet></Snippet>
      <Point>
        <extrude>0</extrude>
        <altitudeMode>relativeToGround</altitudeMode>
        <coordinates> 176.334832,-39.588815,0.000000</coordinates>
      </Point>
    </Placemark>
    <Placemark>
      <name>AWATERE HUT</name>
      <styleUrl>#IconStyle00</styleUrl>
      <Snippet></Snippet>
      <Point>
        <extrude>0</extrude>
        <altitudeMode>relativeToGround</altitudeMode>
        <coordinates> 176.138958,-39.970870,0.000000</coordinates>
      </Point>
    </Placemark>
    <Placemark>
      <name>IRON BARK HUT</name>
      <styleUrl>#IconStyle00</styleUrl>
      <Snippet></Snippet>
      <Point>
        <extrude>0</extrude>
        <altitudeMode>relativeToGround</altitudeMode>
        <coordinates> 176.092169,-39.682252,0.000000</coordinates>
      </Point>
    </Placemark>
    <Placemark>
      <name>POUTAKI HUT</name>
      <styleUrl>#IconStyle00</styleUrl>
      <Snippet></Snippet>
      <Point>
        <extrude>0</extrude>
        <altitudeMode>relativeToGround</altitudeMode>
        <coordinates> 176.316037,-39.728285,0.000000</coordinates>
      </Point>
    </Placemark>
    <Placemark>
      <name>TARUARAU BIV</name>
      <styleUrl>#IconStyle00</styleUrl>
      <Snippet></Snippet>
      <Point>
        <extrude>0</extrude>
        <altitudeMode>relativeToGround</altitudeMode>
        <coordinates> 176.267469,-39.542188,0.000000</coordinates>
      </Point>
    </Placemark>
    <Placemark>
      <name>SHUTES HUT (HISTORIC)</name>
      <styleUrl>#IconStyle00</styleUrl>
      <Snippet></Snippet>
      <Point>
        <extrude>0</extrude>
        <altitudeMode>relativeToGround</altitudeMode>
        <coordinates> 176.293875,-39.509888,0.000000</coordinates>
      </Point>
    </Placemark>
    <Placemark>
      <name>CROW HUT</name>
      <styleUrl>#IconStyle00</styleUrl>
      <Snippet></Snippet>
      <Point>
        <extrude>0</extrude>
        <altitudeMode>relativeToGround</altitudeMode>
        <coordinates> 176.084320,-39.767188,0.000000</coordinates>
      </Point>
    </Placemark>
    <Placemark>
      <name>WORSLEY HUT</name>
      <styleUrl>#IconStyle00</styleUrl>
      <Snippet></Snippet>
      <Point>
        <extrude>0</extrude>
        <altitudeMode>relativeToGround</altitudeMode>
        <coordinates> 167.833754,-44.943147,0.000000</coordinates>
      </Point>
    </Placemark>
    <Placemark>
      <name>HUT - DOUGHBOY BAY</name>
      <styleUrl>#IconStyle00</styleUrl>
      <Snippet></Snippet>
      <Point>
        <extrude>0</extrude>
        <altitudeMode>relativeToGround</altitudeMode>
        <coordinates> 167.706051,-47.031288,0.000000</coordinates>
      </Point>
    </Placemark>
    <Placemark>
      <name>CASWELL SOUND HUT</name>
      <styleUrl>#IconStyle00</styleUrl>
      <Snippet></Snippet>
      <Point>
        <extrude>0</extrude>
        <altitudeMode>relativeToGround</altitudeMode>
        <coordinates> 167.307882,-45.048267,0.000000</coordinates>
      </Point>
    </Placemark>
    <Placemark>
      <name>HUT - BUNGAREE</name>
      <styleUrl>#IconStyle00</styleUrl>
      <Snippet></Snippet>
      <Point>
        <extrude>0</extrude>
        <altitudeMode>relativeToGround</altitudeMode>
        <coordinates> 168.033784,-46.808863,0.000000</coordinates>
      </Point>
    </Placemark>
    <Placemark>
      <name>KOTEPATO HUT</name>
      <styleUrl>#IconStyle00</styleUrl>
      <Snippet></Snippet>
      <Point>
        <extrude>0</extrude>
        <altitudeMode>relativeToGround</altitudeMode>
        <coordinates> 177.326287,-38.333959,0.000000</coordinates>
      </Point>
    </Placemark>
    <Placemark>
      <name>WAIOKOTORE BIVVY</name>
      <styleUrl>#IconStyle00</styleUrl>
      <Snippet></Snippet>
      <Point>
        <extrude>0</extrude>
        <altitudeMode>relativeToGround</altitudeMode>
        <coordinates> 176.125598,-39.648000,0.000000</coordinates>
      </Point>
    </Placemark>
    <Placemark>
      <name>TRIANGLE HUT</name>
      <styleUrl>#IconStyle00</styleUrl>
      <Snippet></Snippet>
      <Point>
        <extrude>0</extrude>
        <altitudeMode>relativeToGround</altitudeMode>
        <coordinates> 176.075313,-39.904417,0.000000</coordinates>
      </Point>
    </Placemark>
    <Placemark>
      <name>COLENSO HUT</name>
      <styleUrl>#IconStyle00</styleUrl>
      <Snippet></Snippet>
      <Point>
        <extrude>0</extrude>
        <altitudeMode>relativeToGround</altitudeMode>
        <coordinates> 176.140688,-39.671923,0.000000</coordinates>
      </Point>
    </Placemark>
    <Placemark>
      <name>POURANGAKI HUT</name>
      <styleUrl>#IconStyle00</styleUrl>
      <Snippet></Snippet>
      <Point>
        <extrude>0</extrude>
        <altitudeMode>relativeToGround</altitudeMode>
        <coordinates> 176.080254,-39.858329,0.000000</coordinates>
      </Point>
    </Placemark>
    <Placemark>
      <name>TOKA BIVY</name>
      <styleUrl>#IconStyle00</styleUrl>
      <Snippet></Snippet>
      <Point>
        <extrude>0</extrude>
        <altitudeMode>relativeToGround</altitudeMode>
        <coordinates> 176.071871,-39.983820,0.000000</coordinates>
      </Point>
    </Placemark>
    <Placemark>
      <name>NGAMOKO HUT</name>
      <styleUrl>#IconStyle00</styleUrl>
      <Snippet></Snippet>
      <Point>
        <extrude>0</extrude>
        <altitudeMode>relativeToGround</altitudeMode>
        <coordinates> 176.053107,-40.035695,0.000000</coordinates>
      </Point>
    </Placemark>
    <Placemark>
      <name>FORKS HUT</name>
      <styleUrl>#IconStyle00</styleUrl>
      <Snippet></Snippet>
      <Point>
        <extrude>0</extrude>
        <altitudeMode>relativeToGround</altitudeMode>
        <coordinates> 175.939269,-40.114351,0.000000</coordinates>
      </Point>
    </Placemark>
    <Placemark>
      <name>TRAVERSE (A FRAME) HUT</name>
      <styleUrl>#IconStyle00</styleUrl>
      <Snippet></Snippet>
      <Point>
        <extrude>0</extrude>
        <altitudeMode>relativeToGround</altitudeMode>
        <coordinates> 176.014105,-40.107913,0.000000</coordinates>
      </Point>
    </Placemark>
    <Placemark>
      <name>DIGGERS HUT</name>
      <styleUrl>#IconStyle00</styleUrl>
      <Snippet></Snippet>
      <Point>
        <extrude>0</extrude>
        <altitudeMode>relativeToGround</altitudeMode>
        <coordinates> 175.955130,-40.101327,0.000000</coordinates>
      </Point>
    </Placemark>
    <Placemark>
      <name>MAKAHU SADDLE HUT</name>
      <styleUrl>#IconStyle00</styleUrl>
      <Snippet></Snippet>
      <Point>
        <extrude>0</extrude>
        <altitudeMode>relativeToGround</altitudeMode>
        <coordinates> 176.407863,-39.286921,0.000000</coordinates>
      </Point>
    </Placemark>
    <Placemark>
      <name>PARKS PEAK HUT</name>
      <styleUrl>#IconStyle00</styleUrl>
      <Snippet></Snippet>
      <Point>
        <extrude>0</extrude>
        <altitudeMode>relativeToGround</altitudeMode>
        <coordinates> 176.250605,-39.677876,0.000000</coordinates>
      </Point>
    </Placemark>
    <Placemark>
      <name>HANAMAHIHI HUT</name>
      <styleUrl>#IconStyle00</styleUrl>
      <Snippet></Snippet>
      <Point>
        <extrude>0</extrude>
        <altitudeMode>relativeToGround</altitudeMode>
        <coordinates> 176.958406,-38.430295,0.000000</coordinates>
      </Point>
    </Placemark>
    <Placemark>
      <name>MARTIN'S HUT</name>
      <styleUrl>#IconStyle00</styleUrl>
      <Snippet></Snippet>
      <Point>
        <extrude>0</extrude>
        <altitudeMode>relativeToGround</altitudeMode>
        <coordinates> 167.859972,-46.261622,0.000000</coordinates>
      </Point>
    </Placemark>
    <Placemark>
      <name>BECKETTS HUT</name>
      <styleUrl>#IconStyle00</styleUrl>
      <Snippet></Snippet>
      <Point>
        <extrude>0</extrude>
        <altitudeMode>relativeToGround</altitudeMode>
        <coordinates> 168.003662,-45.655632,0.000000</coordinates>
      </Point>
    </Placemark>
    <Placemark>
      <name>MANSION HUT</name>
      <styleUrl>#IconStyle00</styleUrl>
      <Snippet></Snippet>
      <Point>
        <extrude>0</extrude>
        <altitudeMode>relativeToGround</altitudeMode>
        <coordinates> 168.423492,-45.499774,0.000000</coordinates>
      </Point>
    </Placemark>